,giga_id_school,latitude,longitude,bin_internet_availability,norm_schools_near_conn
67,467a75fd-081f-497f-b9b0-235f37703fd6,-2.38875,29.82669,0,0.7
68,3f8a1e5c-bfaf-4304-9e24-dd176834c84d,-2.25747,29.69072,0,0.6428571428571429
69,5f196471-b063-47e1-bd08-b9996370f5f2,-1.60433,29.86117,0,0.625
70,18ada197-dd45-4e5d-86a0-d8e9a5139ab3,-1.6035,29.60625,0,0.4444444444444444
71,ef6771b2-ea6b-4a12-b58e-42131b6ced2f,-1.58458,30.10442,0,0.8
72,6d34b5d2-b240-465a-85f6-f1ba3c1dccb0,-2.71369,29.53931,0,0.7142857142857143
73,b2368682-6c2d-471d-a759-04e7c4460be3,-1.65222,29.95417,0,0.5
74,06f65b59-fcf5-49df-b278-6130f67b311a,-1.64997,29.54019,0,0.3333333333333333
75,96c14cd5-0076-4082-af32-e163696b2762,-2.12494,29.83972,0,0.42857142857142855
76,4d0d9d04-54b3-4dc6-9898-f512a5541c1a,-2.14389,29.57453,0,0.3333333333333333
77,c02a6d59-e356-4348-b73b-95da1fc836dc,-2.04961,29.39758,0,0.5555555555555556
78,4aa42530-4e67-48b7-a840-1f99c456c05f,-2.24714,30.06964,0,0.5
79,9bac841f-303e-4458-b9f5-5effffb67c00,-2.09372,29.57283,0,0.5
80,c62903a2-ace4-42bb-baa0-d7e892371127,-1.46344,29.83867,0,0.2
81,3abfa6a0-68d5-4843-9d7d-5b457703f73d,-2.42639,29.92306,0,0.6666666666666666
82,f258eae4-b488-47ed-b1a4-5f359ae83899,-1.97592,29.41856,0,0.16666666666666666
83,13caffbf-2abe-4a9b-aa3c-a9010dd83096,-1.94861,30.10556,0,0.6428571428571429
84,8f23bf7b-64a6-4aea-b314-c43ee8b06b92,-2.41675,29.06681,0,0.8333333333333334
85,31d8631c-8e8b-4b66-a668-84ddaa9345b3,-1.46542,29.80956,0,0.16666666666666666
86,73d8d88e-3425-4df2-9b87-cffcded1427c,-2.159,29.40411,0,0.25
87,71c0ef0e-9554-4cc1-b781-03ada10e0f48,-1.97367,29.34669,0,0.4
88,95dd9f9b-bbce-4f38-83f3-e49b88cc734d,-2.15939,29.54797,0,0.3333333333333333
89,e3d2673d-329b-40c1-bf2d-825764df130f,-2.05744,29.42708,0,0.5555555555555556
90,5b0592dd-e922-49aa-9167-6272c3592bbc,-1.99619,30.11775,0,0.4166666666666667
91,9531a4af-6188-4779-b2f8-9606620f1605,-2.24797,29.55306,0,0.4
92,864415e3-147d-4032-9efd-512efab640c8,-2.00147,30.09342,0,0.3684210526315789
93,165248ce-7527-4c82-8e0e-29e6d714087b,-1.93997,30.25631,0,0.625
94,a615f9dd-95d1-43b3-bd7a-6e41142c3e61,-2.07353,29.38553,0,0.4166666666666667
95,ade02872-f4d6-4b9c-a9c6-a00c29f29a76,-1.57244,29.94133,0,0.3333333333333333
96,bb9f4ec3-9151-450c-a667-b94d3e801962,-2.51264,29.90617,0,0.5
97,bb03f5d4-ad67-4abf-96a9-0b66eaa68aef,-2.14258,29.4895,0,0.375
98,9eca43bc-e67a-4ce8-8eea-1bde1f5719ba,-1.62772,29.63278,0,0.45454545454545453
99,3e7feede-9234-47cb-a8fe-60e1ac17ef03,-1.84697,29.6875,0,0.6153846153846154
100,dc72766d-251a-4901-aad5-0a8a74394dde,-2.19431,29.52842,0,0.375
101,cedfa816-1d36-49b7-af90-75342700696d,-1.75331,29.70853,0,0.5
102,f290021d-858f-48cc-94b1-fd93f976989b,-1.96075,30.55314,0,0.25
103,38889d14-99e0-4372-b23c-99d49e9b9738,-2.18444,30.02511,0,0.75
104,0da116e4-3b3d-48a6-8f7e-f1af73e60a44,-2.07264,29.43117,0,0.4166666666666667
105,64c2fddb-f513-4992-a795-1a49ed9a8b10,-2.52394,28.92239,0,0.5
106,85229b34-fc9a-49c9-a814-77680eadc56c,-1.38436,29.77844,0,0.25
107,9ff7841b-10d6-4525-abf9-555c8e9af038,-1.93939,29.44003,0,0.0
108,cdffcd4a-197d-43f1-8e2b-6c5a698c7f06,-2.66144,29.87442,0,0.3333333333333333
109,52f6f616-7fe9-4511-a245-cb5ba7d97b34,-1.93658,29.63167,0,0.375
110,f2cc9407-4aa8-498d-a658-b7bcdcb047b4,-1.92681,30.59181,0,0.5
111,d9851893-1b5e-4bde-ab16-87b74409ebdb,-1.99108,29.60239,0,0.3333333333333333
112,8a0d5cbf-ed76-49c7-b874-c960103bec65,-1.71097,30.36919,0,0.5
113,5be66c14-0b48-4ba4-a885-c49818c4dc76,-1.68258,29.79269,0,0.3333333333333333
114,72b7b9c3-736d-4587-a50b-0f956610625b,-2.25453,29.83311,0,0.5
115,340053c7-d16b-4ab8-95c8-e1126887b9f5,-1.50222,30.40417,0,0.3333333333333333
116,570d0d7c-15b0-449e-a7cc-f072a9a2c6be,-2.13072,29.65639,0,0.6666666666666666
117,0d1b1721-d0e1-4d66-a753-031cff2dfb5f,-1.40706,29.73625,0,0.2222222222222222
118,d45c21e1-80af-4edd-8db0-b5baca76720b,-1.76003,29.9945,0,0.3333333333333333
119,2ef7ede8-dea8-4f7f-987a-a7f42c863930,-1.45806,29.62778,0,0.875
163,ec9ef2ee-94dd-4720-a389-af2fa015c8fb,-1.95067,29.96389,0,0.8181818181818182
244,9aec6fb6-c03e-458c-ae6e-772de5baec86,-1.51553,29.942,0,0.0
245,e996f37c-e251-4a1b-90bd-e6f0910d58fa,-1.37194,29.85028,0,0.0
246,b9fee804-fb80-415f-ab1b-3b4d1414b368,-2.07239,29.94897,0,0.5714285714285714
247,e5fc6234-be9f-4356-a556-04f32d7f18b2,-2.09683,29.91253,0,0.0
356,cfa749c6-a098-4d1b-8745-fd4a17e239c9,-1.95972,30.13978,0,0.38095238095238093
357,21d10827-3a8b-43e2-9351-4444be98f163,-2.05522,29.679,0,0.75
358,05d6a2bb-4ff1-4ce7-9bb0-77de6591a427,-1.64347,29.46281,0,0.125
359,13f15d5b-c83e-463b-9774-9379f2340502,-1.51586,29.80711,0,0.0
360,b938e0b7-d4fb-4aeb-8bc0-30fe3256da99,-1.71864,29.26864,0,0.3076923076923077
361,f591ddd4-81e4-4878-9fd8-1a58c885de87,-1.87686,29.61722,0,0.625
362,c6e47d0f-5eff-4909-aa61-b88b48538e98,-1.46736,29.87769,0,0.0
363,16fd3a11-37ad-469f-a96c-e03688973be5,-2.51861,29.49594,0,0.5
364,4d5073a4-449a-46b1-8d35-5481c9972483,-1.37194,29.85028,0,0.0
365,052f28bf-a929-401c-9be4-7ef5d7404d6e,-1.51586,29.80711,0,0.0
366,15c5c1ed-28ad-4d9b-ab97-f33763ac0055,-2.1896,29.62772,0,0.6
367,2476eff1-054b-4645-87c8-0f62e2ddb692,-2.09128,29.97689,0,0.75
368,cc2c8fd6-cdbb-49a0-a57d-6b71bc327f96,-1.99564,29.88897,0,0.7
369,18acfd91-9704-4f6b-aa82-3bbd5aa3f15e,-1.96086,29.85747,0,0.8
370,d8682461-c6d7-4775-ac5c-0351aaf325f3,-1.90056,29.49886,0,0.2
371,398d5e1c-c8be-4152-827f-562caf4c581d,-2.06347,29.61839,0,0.5
372,89cdd96b-6698-448f-8449-1139ef9086ff,-2.07578,29.61817,0,0.5555555555555556
373,5b06c504-cafc-4cb8-a490-d0aeb854430a,-1.87647,29.68072,0,0.6666666666666666
374,79d84a90-ac1d-4063-815e-caee9512ecca,-2.09139,29.45731,0,0.45454545454545453
375,94b7fea1-675d-48d1-964a-b46b844e5847,-1.84228,29.70761,0,0.6666666666666666
376,0e956852-34f9-4246-b7a9-83306d0ef338,-1.75967,29.74211,0,0.3333333333333333
377,16f01821-d7e6-4eda-92a4-3eef9cc8910d,-2.30489,29.43189,0,0.16666666666666666
378,a32c4f04-fab7-47bb-899e-7e37c986d1c3,-2.33514,29.44386,0,0.5714285714285714
379,22520b99-63cf-400c-bd66-a42428af517d,-1.6025,29.52231,0,0.5555555555555556
380,01f71e9b-5e30-49f1-9da1-d0e5228256b8,-2.39719,29.80144,0,0.5
381,5a231140-0658-438a-a0ba-f0230bc0e259,-2.52464,29.54314,0,0.4
382,1bc13b22-b761-4a61-a048-a13a0d888f07,-2.23625,29.317,0,0.5
383,fdaa4240-0762-4851-94ce-58144fe473ed,-1.67081,29.55547,0,0.375
384,e6ce7b67-d2c1-4dfd-a638-594fb92a2998,-2.67936,29.78678,0,0.3333333333333333
385,69bacc3d-553d-4b5c-b7ca-5bbf49be73fd,-1.66625,29.93511,0,0.3333333333333333
386,43a0c008-d327-40d1-8d1d-afc63e793d64,-2.39989,29.40111,0,0.25
387,a077851e-6d59-4d8c-bfe6-e2d8ab9e846c,-2.30808,29.58094,0,0.4
388,b454b59e-058b-425f-a924-0033cecb0a2b,-1.85106,29.55222,0,0.4444444444444444
389,7515e65f-dd53-41b0-b237-8ad341fc14a5,-2.15475,29.53219,0,0.2857142857142857
390,564065c9-ae21-4f63-b271-255b7df8eb14,-2.14156,29.4845,0,0.3333333333333333
391,cdd1f874-ebda-4154-9b28-fb8e3f8db3e5,-2.17908,29.58536,0,0.3333333333333333
392,28b57a25-5451-48cd-bb3e-ec711b029043,-1.75022,29.32997,0,0.2222222222222222
393,0c7c38e7-5455-4e6d-9138-ffe0f98b6bbc,-2.09608,29.37619,0,0.5
394,ca1e8c42-4439-40ee-b79d-0e30f87fd732,-2.25203,29.67719,0,0.5833333333333334
395,d7549644-ec1a-4f2c-ad03-fcfc3ba991a4,-2.17225,29.57031,0,0.3076923076923077
396,6994026f-b082-4620-a26d-3e53159f3cfe,-1.68708,29.62622,0,0.46153846153846156
397,b4be5ea4-26c7-43c2-96eb-f05279d7b8b5,-2.67936,29.78678,0,0.3333333333333333
398,217c2ef4-de92-45ad-a511-269ead445618,-1.28936,30.33492,0,0.7142857142857143
399,6101ceb5-8f61-4f8b-a33b-2180999c8a59,-1.98147,30.11814,0,0.46938775510204084
400,c876a085-f40f-44df-b395-133352df7af9,-2.16608,29.50581,0,0.25
401,7613aaf2-d1e4-4113-bf2b-b5c8f22ec34c,-2.18922,29.54981,0,0.375
402,fbcbd0bc-2112-4450-849a-41f8871bfb08,-1.71078,29.84192,0,0.2
403,6179d4dd-8067-48f7-9072-88b1bb8cea20,-2.05872,30.23463,0,0.5
404,5a176501-82c2-43a3-bfeb-66dd874d4895,-1.876,29.33972,0,0.5
405,d311ae9c-28dd-48b7-a13d-1b6f999fe149,-2.03525,30.68894,0,0.0
406,e3f84b83-5da1-4cd1-95a4-cb0cacf80c86,-2.10389,30.0925,0,0.42857142857142855
407,3c06e575-15fd-4b07-907c-8a668b24d83a,-1.97542,30.06917,0,0.5921052631578947
408,bb3e6120-e33d-4f20-9017-bcb716b677d2,-2.10458,29.44536,0,0.4166666666666667
409,7a26b4ad-4cf8-4bbc-b3af-fcdde2984cb8,-1.51408,30.07272,0,0.8
410,51c5f9ef-dcb5-4bf7-8399-1b59d6e46b2c,-2.35458,30.06261,0,0.5
411,a5c267f0-b3b2-4e04-8af5-a5cca425af7a,-1.71494,29.95167,0,0.5714285714285714
412,bbb9ca35-e932-4066-9e4c-59b5eb610c03,-2.54803,29.61283,0,0.5
413,f22333e2-e01a-44b7-b8cf-2e340649d85f,-1.71667,30.08042,0,0.7142857142857143
414,1eec3e42-583a-4a26-b11f-1bf81952831b,-1.90547,30.20022,0,0.3333333333333333
415,f634611a-9886-4788-9fa1-26bbfd91da63,-1.75778,29.86758,0,0.2857142857142857
416,56b21c93-8cbb-40b5-9158-71ef22601925,-2.30231,29.94269,0,0.8888888888888888
417,2a084003-e344-4b8f-8202-84cc9ee29d03,-2.42894,29.77828,0,0.6666666666666666
418,1d10dd59-bc03-4e09-bab0-d9685cff05ed,-1.69231,29.76106,0,0.5
419,ebfed99b-9200-4c73-8828-7e7d72cb60fc,-2.25108,29.32703,0,0.5
420,fbd97c82-e2da-48e4-a16c-9336f11b26fe,-2.12575,29.93131,0,0.7777777777777778
421,a7bdc112-b495-406a-a74b-4b57ba814739,-1.84628,29.67908,0,0.5384615384615384
422,19fb61c0-246b-4185-b60b-1db52a43e44a,-1.71239,30.00908,0,0.16666666666666666
423,23f33c88-d911-4c21-9c07-17cb51f01e81,-2.67369,29.63008,0,0.5
424,1dc76ef0-ed41-4e8a-9d35-ad7b4c920488,-1.9125,30.14767,0,0.5
425,f86d27cc-e971-4a63-b1ae-0f64a5196d72,-1.67964,29.64625,0,0.4166666666666667
426,9542e21a-3adf-47e3-af6f-95d83f6b6caf,-1.46736,29.87769,0,0.0
427,2f3b9191-8693-44d8-ba48-b9f96bba14f7,-2.33247,29.90292,0,0.75
428,9d49ee1c-1d5e-4579-8468-6cc0da4058d3,-1.76344,30.14983,0,0.9
429,089848de-0ca8-4a74-98bc-491355926197,-1.43953,30.02361,0,0.6666666666666666
430,eed3a945-a9fd-4cbf-8aa0-f3e745f26536,-2.13911,29.95142,0,0.6
431,25606153-0f03-4d98-8920-d0598aefd832,-1.51553,29.942,0,0.0
432,3167b6f0-3b38-44f3-84b8-737f4f7f88ee,-1.79158,30.12494,0,0.5
433,f0c2f710-534d-4b47-b639-17ffed2510de,-2.07578,29.61817,0,0.5555555555555556
434,aa59cac1-0a4b-4f83-ba8a-c5635a5195e8,-2.71789,29.60175,0,0.8571428571428571
435,0b383d99-5322-4dae-98e5-d7acee76c084,-2.21806,29.88364,0,0.25
436,b8bcb059-5f6b-45d4-bc47-b0f47002596f,-2.20656,29.70183,0,0.5714285714285714
607,60e1af5b-2f42-4f16-b09e-fbe0999f5267,-1.93469,29.56844,0,0.3333333333333333
608,e5f1392b-a7a2-4c09-883e-7ea46ab4d656,-1.68653,29.62892,0,0.46153846153846156
614,d0796453-a926-4243-a595-3a064a3606f5,-1.77072,29.372,0,0.3333333333333333
615,3f91eaeb-2fc5-4265-9670-825ae236e5d3,-2.07858,30.64322,0,0.6666666666666666
616,dd66f200-b0f5-4019-b3f8-17dc20652b2c,-2.33872,29.48747,0,0.4
617,30edf645-1b25-4b63-b5b4-77bb42089d5a,-2.01078,29.49094,0,0.25
618,09359b80-24b9-4c8d-b593-d1370854cdfe,-1.86742,29.30214,0,0.625
619,c1e9d110-2a0e-4eb4-8757-651f2cc793fd,-1.77269,30.297,0,0.5
620,0343b875-46dd-4435-8e18-e0a04584e517,-1.75167,29.55214,0,0.5
621,67399875-80c7-452f-9ac0-75f7cdce3e12,-2.00025,29.35794,0,0.3333333333333333
622,5854c29a-bd38-4eed-a30e-d9e5a1ce64c0,-1.83842,29.63128,0,0.5714285714285714
623,c46051c1-59ed-44a8-b7af-014dbe344807,-2.37281,29.38217,0,0.5
624,07c779e5-3f19-479f-8435-c78d49fad2d6,-1.4395,30.1425,0,0.6666666666666666
625,1f2f201e-9821-45f4-ad5b-552074390c9d,-1.77039,29.34358,0,0.2857142857142857
633,e402ec49-9227-40b4-8847-e05edc5a6abd,-2.36747,29.38144,0,0.5
634,f11ee564-8752-4e34-aab8-f977655535e7,-1.92214,30.06256,0,0.5681818181818182
635,d74a013b-172f-4dfa-9c47-e011187b7e90,-1.98397,30.07714,0,0.53125
636,1747393e-69e2-4c3b-a3fd-f9cc7e3e02ed,-1.93944,30.07203,0,0.609375
637,404d8653-c77d-4033-af45-a9b4d8e882e6,-1.97797,30.08561,0,0.4782608695652174
638,e5c72b6c-391f-4639-9201-01d4bdae345d,-1.10269,30.42147,0,0.5833333333333334
639,9642b09b-28c5-4f7e-b269-d719414d9675,-1.933,30.23292,0,0.3333333333333333
640,30c3e8fb-b2a3-4e4b-abe9-acbc19d9c3a2,-1.95231,30.13369,0,0.4166666666666667
646,6f2fed2e-75f9-4194-9aa8-2d46be966331,-1.30458,30.25936,0,0.4
647,2349b591-0f87-4c87-94a3-eca39a97f5f9,-2.22203,30.15553,0,0.3
648,5eb2eb0d-bfc4-47b0-bfa5-0d07c1b13b2c,-1.90056,29.49886,0,0.2
649,ed0df7c5-9875-4be0-adf8-5c5e25d14c42,-1.933,30.23292,0,0.3333333333333333
650,e85a6608-c870-4c3c-9fd1-17f534abbfb9,-1.97125,30.09247,0,0.45121951219512196
651,250644ee-12f9-405a-9c22-86f7e3fa4a83,-1.72347,29.61622,0,0.375
652,1a2903d8-57bc-4417-a618-14572d249b21,-2.41956,29.68633,0,0.75
653,218c52dd-6aed-4512-aa89-8daec71d8625,-2.20225,30.58886,0,0.8571428571428571
654,e7974fcf-e54a-44c0-aed3-033214e89f6b,-1.95231,30.13369,0,0.4166666666666667
655,9ac4aa8a-3cdd-45ad-aeda-c6f67178c62f,-1.92214,30.06256,0,0.5681818181818182
656,3e05136b-1856-44d1-9e1a-6ac1215186b6,-1.63883,29.61444,0,0.4
657,948f221a-58e8-4cef-9b98-5f9dccff0ab0,-1.93261,29.64983,0,0.375
658,188cab2d-7fc6-430f-8f53-06f36ac17e11,-1.69194,29.60992,0,0.35714285714285715
659,2b5ffb27-0ba1-4496-aa6e-3825576b7b9a,-2.22203,30.15553,0,0.3
660,b8cb6369-cdf4-475c-8ca6-849b0242da57,-2.12992,29.35244,0,0.14285714285714285
661,c3491837-6a06-4dc9-9631-eb08982395a1,-2.76819,29.73047,0,0.625
662,7de3457b-88c2-4c2b-ac4e-af61e9db319f,-1.98492,30.07036,0,0.6031746031746031
663,68008e82-6898-4679-8b3e-be1689d872a6,-1.939,30.049,0,0.62
664,d0290b38-4471-4844-8145-631a32e63a37,-1.38706,30.38517,0,0.4
665,49743dc9-073b-42df-8ea2-dae6e8299653,-1.98769,30.10064,0,0.40350877192982454
666,1d640e9e-375d-466e-ad43-ea3beb077d81,-1.10939,30.42861,0,0.6666666666666666
667,2962a71d-35e5-4edf-a339-3378414f3c43,-1.9405,29.59869,0,0.6
668,7d620c02-7d0f-40a1-8b94-b6d4b7b19a7e,-1.75747,30.28358,0,0.5454545454545454
669,d0bccb0e-a2af-41da-a9c6-4942006aa1ee,-1.74828,29.5515,0,0.5
670,a8a04259-6760-4d2d-b65e-903b11097e28,-2.36669,29.42911,0,0.4
671,633e5c64-6e5d-4311-8d83-a1fdc75ad42f,-1.82472,29.65983,0,0.5555555555555556
672,f6a7693b-eac2-4743-b3ae-b86a4921a707,-2.15092,29.50997,0,0.35714285714285715
673,7914dafc-6290-437d-b5a4-e953602175ee,-2.62469,29.74117,0,0.84
674,6ac698fa-ecbc-481e-ae97-7079090805a9,-1.43856,30.11983,0,0.6
675,6efa4ed8-4dd4-4261-8677-6a51b1d034cb,-1.30231,30.23439,0,0.5
676,05b9386e-2475-4db7-87c3-b2bfd916d243,-2.47389,29.88933,0,0.25
677,26e89649-8136-4f52-adaf-c01ebe83d8f6,-1.96383,30.51989,0,0.2
678,6ad29b03-f126-4f95-a8b3-3422d3b59e5c,-1.97892,30.22936,0,0.5714285714285714
679,41767f5f-694a-4118-9002-42049ec0a1c9,-1.91472,29.29969,0,0.5
680,adcb8b9e-5c40-4ec4-97a1-ff614cb0ac9a,-2.50461,29.70822,0,0.3333333333333333
681,8a8892f2-4a17-4404-903a-d228415033ac,-2.49475,29.47975,0,0.3333333333333333
682,199b973c-609f-4062-8a8a-ee8afc4c35f5,-1.99564,29.88897,0,0.7
683,28b5e84a-56fd-419c-9b9f-513bc359cd23,-2.09683,29.91253,0,0.0
684,f372415c-c109-4a1a-a8c0-ed2540724c05,-1.97892,30.22936,0,0.5714285714285714
693,2c72a9bc-4fca-4bf4-a2e8-fe748aebd796,-1.907,30.04764,0,0.45
694,62847040-9e53-4860-88c4-559fafef6c6f,-2.14575,29.52058,0,0.35714285714285715
696,322b9700-32ce-4c4a-87ff-4b84cd605604,-2.22567,29.778,0,0.5555555555555556
697,2769d404-ea8e-4720-940e-542407adfc05,-1.62706,29.70808,0,0.2222222222222222
789,a6e5c8d3-016c-4262-a0dc-cc67a513206c,-1.72392,29.7465,0,0.2857142857142857
790,ee149b2f-c898-4c61-b879-4cba1eb7f5d2,-1.79161,30.068,0,0.4
791,3bf7bd01-c66d-416b-93c9-00c3c821c2e2,-1.91594,29.67767,0,0.4444444444444444
792,6c1e25f2-d9c4-44ec-b35a-2a1465919cb4,-2.23453,29.68508,0,0.5384615384615384
793,8e903b00-fa17-4e57-bd73-13581f199ea8,-1.287,30.24717,0,0.3333333333333333
794,d20bf222-e810-432f-b278-d5a0e4448822,-1.54194,29.87286,0,0.25
795,096f27a4-2e54-406c-98f9-9b7cccc1571b,-1.78131,29.82825,0,0.5
796,f90795e4-f3f4-434b-9029-2cf712b3ed4e,-1.70317,29.63336,0,0.4117647058823529
797,90320ff8-de9a-4617-a2d5-f36c964e59d0,-1.46944,29.74028,0,0.2857142857142857
798,8764ebf7-9e3e-4fa7-86aa-8f7da5745ed5,-1.72797,30.42183,0,0.2857142857142857
799,675a0ccf-b5fe-485c-a296-25cad2114e39,-1.70769,29.73272,0,0.2857142857142857
800,be416cf4-28d0-4776-a816-371dddae6509,-1.49231,29.93058,0,0.25
801,064cedce-20aa-4e77-82e7-096ebac67a1a,-1.97811,30.17022,0,0.45454545454545453
802,d53a97d2-5d88-4ddd-b1cf-57e3fc473e92,-2.60381,29.83228,0,0.375
803,d948dec1-9a2f-468b-a20f-38790a280d12,-2.54161,29.07908,0,0.8
804,f7e7f903-cf6c-4dc0-81a1-ea928ecf5c7d,-1.65964,29.98947,0,0.5
805,27f91d45-2aac-49b8-a2f0-54ff8f45b64f,-2.12147,29.26589,0,0.3333333333333333
806,2508a950-0ea1-4c0b-9909-d7c94a24a35c,-1.50253,29.97375,0,0.26666666666666666
807,e7e23c46-acea-4fd6-8d50-63feeae43a5f,-1.76089,30.06661,0,0.4
808,73df426a-9316-466e-aa40-3fe1f84ecef5,-1.53453,30.16906,0,0.5
809,f0b09fc5-4f42-404f-b29d-8dfbacf03663,-1.65069,29.68747,0,0.4
810,a7beffa3-62d7-4230-a9fd-b27cf6e995d5,-1.85806,30.11256,0,0.4
811,7fae0a60-3d94-48ac-bc4f-6fbf25e154e5,-2.71811,29.83892,0,0.0
812,184a27b1-9212-4264-b12d-d4c2728700c6,-1.87531,30.24214,0,0.5
813,3774670f-a022-4572-9290-8f4bd7b00b44,-1.96228,30.58975,0,0.0
814,6a66b954-2120-41bc-8d19-1140498f428c,-2.42458,29.41219,0,0.5
815,f551af70-dcad-4f9d-8399-cce48ef0167b,-1.63822,29.89575,0,0.0
816,243938ae-ca89-4d85-9136-c2f89ee96a60,-1.89261,30.10275,0,0.2727272727272727
817,941a0668-d173-40ee-968a-2de30953fc4a,-1.79511,30.50458,0,0.0
818,e29212e1-c373-4d74-98e6-851008e3fcd6,-2.43575,29.45411,0,0.16666666666666666
819,08b8546d-a44d-4206-be3f-5cf72960addc,-1.92817,30.13294,0,0.6521739130434783
820,b4300e1a-f1d7-4b89-bb77-788c1a2788e1,-2.67158,29.01075,0,0.0
821,f0e57fce-8979-4657-9839-888a272b5d2b,-1.8945,29.97194,0,0.8333333333333334
822,3d7c14f3-102d-4404-811c-55fe836815b8,-2.48511,29.68353,0,0.5
823,0819fcf2-5cf3-49d4-999e-a26c839ed288,-1.65306,29.91264,0,0.25
824,a47cd8ef-3dbe-4053-aeee-b2ab75befa4c,-2.263,30.11675,0,0.0
825,4ec3fb1a-23ed-42bc-ba42-0299d605d7a6,-1.78419,29.28317,0,0.0
826,04b2cb64-299a-4f2d-9953-a34ffe2c5bf2,-2.58914,29.87,0,0.3333333333333333
827,9133c70a-c1ef-44d4-a00f-b49884120cdb,-1.68775,29.81883,0,0.2222222222222222
828,19b5d70a-1457-45b1-b6da-b2d370e31930,-1.91731,30.17811,0,0.3333333333333333
829,91feb22d-6dd5-42e7-a94b-3742d95a134f,-1.94242,30.20678,0,0.3333333333333333
830,14fe1819-a706-422a-bf88-b6657ba844f5,-2.25217,29.34358,0,0.4
831,f219fcd6-1d27-4765-99ab-f36458e90c4b,-2.36486,29.73125,0,0.9090909090909091
832,630bddd9-794f-4706-b05e-fe3ca5c5d6aa,-2.24258,29.77958,0,0.5
833,02930f6b-de01-4eaa-8fc5-f10a7958a43b,-1.76992,30.38375,0,0.6
834,474ff07d-82a0-4c3b-8f6f-36ee36fb2aa8,-1.62939,29.93311,0,0.25
835,0a181c11-3ce4-4090-94aa-b0ab22831c02,-2.07039,29.34578,0,0.2222222222222222
836,9a05ef73-a3ba-4369-8689-660a784aed10,-1.34522,29.72975,0,0.0
837,47fbb014-d1f5-4ce2-ab11-df41263a92b4,-1.883,30.15192,0,0.0
838,cf2e4d25-69c8-4fea-b2a3-016ee28db593,-1.34636,29.82308,0,0.0
839,80659471-b745-42b5-a9ad-c602c37e57cd,-1.39136,29.87314,0,0.0
840,0101558c-600f-4b2e-bf5c-c324f049b3b3,-1.68714,29.62625,0,0.46153846153846156
841,981dc948-94f8-4b82-9df9-5c30822b5345,-1.99561,30.19992,0,0.5454545454545454
842,2d702440-3a30-4489-9a19-2243fd08e283,-2.22494,29.71303,0,0.5
843,ee007f39-0e32-446d-ba81-86fb305e7976,-1.80644,30.10767,0,0.2
844,57a8eb43-0c72-4641-bb1a-94ce29522f78,-2.71703,29.73158,0,0.375
845,2443c85d-bad0-4c32-b6ae-837d767e7b38,-1.44472,29.89278,0,0.0
846,3011c853-9dc3-4ed5-9102-d2a488d209a4,-2.68647,29.88053,0,0.5
847,2bad773c-1f80-4052-89be-d3ec84771e75,-2.70194,29.74964,0,0.4444444444444444
848,7ee1f6ad-775d-4610-82a2-ae28cfaaef36,-2.06453,29.97222,0,0.4
849,308ceda0-16f2-4da1-b006-554abd11304c,-1.80317,30.41997,0,0.3
850,1a883167-a83b-446e-9e4f-10461059911f,-2.14561,29.52206,0,0.35714285714285715
851,0a087828-b8f8-4f98-b44e-2455034dc912,-1.83828,30.65497,0,0.0
852,52ff2e22-cf1e-48ed-9808-e303ca937cc7,-2.23203,30.17636,0,0.2857142857142857
853,a8356963-b37b-4064-b3ff-4615a3df012a,-2.49139,28.91722,0,0.42857142857142855
854,a5f3df2f-5d86-491c-9d58-c316b38f6ff8,-2.58761,29.82164,0,0.3333333333333333
855,304332fc-88a9-4ece-8fe9-b97f3b9886f6,-1.66567,30.40828,0,0.6
856,47fa33ce-c3bd-4f72-b445-d1eb73cfa71b,-1.77797,29.94408,0,0.25
857,455428b4-b4de-43dc-8a3a-aecc4fdf86e7,-1.40419,30.11958,0,0.0
858,d93cb806-3c1d-4ae3-b8e3-79a709b0fff6,-1.83061,30.38169,0,0.25
859,0e23713b-b286-47cf-96ec-48848fef4c84,-1.83639,29.30328,0,0.25
860,16e07fe9-6e9f-45d8-a849-4b0947402fad,-1.74103,29.96656,0,0.3333333333333333
861,e186ad69-bd87-4ba1-b28f-719f1e308cc4,-1.86781,30.01228,0,0.3333333333333333
862,107a9e1e-4bee-4cce-a8a2-7fd74280cf01,-1.43064,29.71678,0,0.3
863,5900c587-bfdc-471f-9644-b43e32046063,-1.68789,29.28892,0,0.45454545454545453
864,6f861260-1e2c-4388-857e-e3af68ff04e7,-1.64033,29.40861,0,0.25
865,0a3756be-8feb-4f13-9ca6-fb5751f68e41,-1.90931,29.51967,0,0.3333333333333333
866,564b2adb-9ef1-4dae-9014-9414f3c38c1f,-1.55672,29.80014,0,0.16666666666666666
867,285182a2-f0f0-4580-9cbe-cb96bbe1e35b,-1.95456,30.05867,0,0.6666666666666666
868,b2777c94-1f59-46f2-ac7c-6235089ef10c,-1.55642,29.59569,0,0.5
869,cfa06d39-49e8-41ab-b93d-684c5887c87f,-1.43631,29.86036,0,0.0
870,579a2e87-0a41-4818-837f-f9959b45c4b7,-1.587,29.36556,0,0.5
871,0c739502-82a7-4be7-bce4-b6ce402caadf,-1.68464,30.27094,0,0.5
872,b2df5bb9-8aa5-4651-b13f-c3cd99f92b12,-1.61956,30.29025,0,0.5
873,43d9691d-d3d5-4858-98a3-226dbb4eb969,-1.62183,29.46894,0,0.125
874,2331181a-b616-4987-bc9e-8a7b514b6e60,-1.63633,30.33953,0,0.75
875,a875eff9-6d11-4f5d-a7d8-4982339ea29a,-1.38897,29.73731,0,0.2
970,ea269271-0eab-45fe-b9f7-f7060f47cf9d,-2.27567,29.57389,0,0.2
976,d8723767-f926-448d-8a75-4a9ecd138562,-1.47608,29.96853,0,0.25
977,ead37e73-3fdb-418b-b0db-d21ba1bb98c1,-1.47622,29.84686,0,0.25
978,1436316b-bd27-488e-81b7-c533ed5f55b0,-1.52033,29.96003,0,0.2
979,428bbe73-3d05-40d0-ae9d-6574327783c6,-1.41519,29.85256,0,0.25
980,2136efb3-8369-42f9-bdc2-a3514ac02a67,-1.43639,29.86031,0,0.0
981,47de7c4c-34a7-4751-a2ad-f1d5542aa968,-1.50494,29.63125,0,0.868421052631579
982,9659b3c0-58d5-455a-9e31-f074d1373de8,-1.40958,29.884,0,0.0
983,ce398820-7afd-47ef-b3ec-da07ba8b1f4d,-1.36222,29.80706,0,0.0
984,e0017a30-6533-46ff-8135-02f2bcd10270,-1.49083,29.79758,0,0.0
985,0877526e-810f-42d4-8ed9-b95d6784e802,-1.95853,29.97939,0,0.75
986,757c355e-574f-4f73-8c83-de3b7c402bf4,-1.98003,29.80061,0,0.75
987,16938917-c371-45e7-8ba3-4fe2103e164e,-1.97697,29.80836,0,0.6923076923076923
988,9f46fc03-e05f-4f1b-85d1-f877662e3a92,-1.89361,29.79922,0,0.5714285714285714
989,2e9c6b6f-a3dd-497a-bfce-cf65d4120142,-1.9489,30.0535,0,0.6764705882352942
1205,abbd68f1-dec2-4468-ba93-45caa4e4cc7b,-1.64039,29.56347,0,0.2857142857142857
1206,3fb15662-fc6c-47a6-9879-512fdacddf05,-1.69669,29.70081,0,0.4
1207,f91e426a-8a25-48fc-9818-7f4706574d84,-2.10417,30.10903,0,0.5
1208,2b060887-2c65-4c01-bc78-25b6609de762,-1.35494,29.823,0,0.0
1209,ff627136-528a-4705-8b57-705a5e2db538,-1.56983,29.52272,0,0.6
1210,56c24cb9-d5b3-49c2-aca3-c8c3a3fc2660,-1.46944,29.74028,0,0.2857142857142857
1211,e8f4ab1e-818a-4733-87ea-ac68f69739f0,-1.367,29.75881,0,0.375
1212,c62d96ef-34f2-4448-b51d-b790bf30f1b0,-1.41536,29.85256,0,0.25
1213,52725af1-a397-4b1d-a134-d14cd89c1f6e,-1.51256,29.96956,0,0.36363636363636365
1214,a238e2f0-0ddf-4855-88d3-ef52538d65fa,-2.06453,29.97222,0,0.4
1215,99409059-88ea-4afa-975e-66d71d2485a5,-1.79283,29.37289,0,0.3333333333333333
1216,61dcfc3e-9b9a-41b1-95b6-56496d8f2252,-1.88111,29.37467,0,0.25
1217,d3490d74-2caf-433a-bc03-7aacb88e3565,-1.61544,30.38222,0,0.5454545454545454
1218,61283849-48c2-40ba-a9c6-05a4ebd604c9,-2.03178,29.54658,0,0.2857142857142857
1219,b4f3b077-58e8-4765-a303-1e20a25dac2e,-1.59356,29.846,0,0.3333333333333333
1220,6acab9e2-d247-4ea7-9364-ade2e85621d9,-1.52033,29.96003,0,0.2
1221,488c0eef-3ba0-43fc-abd4-29037996951d,-1.69894,29.87667,0,0.16666666666666666
1222,2931e50c-6dd1-4078-a6b0-30b8c02029cb,-2.5555,29.0387,0,0.5
1223,ae3354fb-bf2e-4ae7-ac01-d78fd7cd70a1,-2.03639,29.38653,0,0.5555555555555556
1224,054ee34f-8dfb-42b7-9fec-319accf75a20,-2.19344,29.42028,0,0.16666666666666666
1225,c04f4580-3773-4412-8217-5beb53e7b633,-1.80119,30.32969,0,0.6666666666666666
1226,4c246e1d-1d3b-4005-9d58-c81e2434e402,-1.84269,29.69853,0,0.6153846153846154
1227,0b6f2eab-6690-4089-aba7-69db0e580d1b,-2.01144,29.42697,0,0.6
1228,cc1bc783-b9f7-4ad5-86bd-2cd1104d0646,-1.7815,30.05447,0,0.42857142857142855
1229,8f94383e-5e07-494b-80da-66d87b5701af,-2.50417,29.43447,0,0.5
1230,1ae39a9d-8002-4d95-be5b-7f384e019c67,-2.21431,29.63967,0,0.4444444444444444
1231,8e6499f9-9e57-4475-956d-be3e0aae2ac3,-2.34069,30.21786,0,0.5
1232,a9cf9502-e825-4352-b5a8-d32ba9a99d61,-2.56439,29.05167,0,0.5454545454545454
1233,cc37fdc7-0187-4ef9-899f-8bd8189eebae,-2.02256,29.55242,0,0.25
1234,aeeb3351-4f0c-4205-b6ae-150ceff7be3e,-1.52044,30.10522,0,0.6
1235,84dc2ebf-c10a-473b-b183-e33f72fd30d6,-2.09925,29.34353,0,0.2857142857142857
1236,eba7e502-ce23-40b5-9111-392dc38f08da,-2.12203,29.51744,0,0.2857142857142857
1237,ebc38970-b784-4303-8dec-ac5e75aee2e3,-2.09322,29.3865,0,0.4444444444444444
1238,fcf964c2-4f2b-4b04-9146-088ff6801773,-2.10158,29.28722,0,0.5
1239,4008c73a-af3b-4910-bc24-4d801fb3bbd6,-1.73944,29.61139,0,0.5555555555555556
1240,8fafec2c-c79d-4de6-82e4-b57c590485fb,-1.74081,29.72303,0,0.5
1241,bae513bf-d86e-4a43-9f6e-1452fa31209f,-1.43083,29.83733,0,0.14285714285714285
1242,b1de877d-4938-44bc-b4cb-3a01a78d0c0d,-1.45125,29.82792,0,0.3
1243,4d8dd2a7-a3d1-4919-ba3b-debf45f0ba94,-1.51586,29.80711,0,0.0
1244,33c83c0e-9c88-43d8-a896-ef8b8ab83553,-2.45722,29.52378,0,0.75
1245,febab9dc-6e41-40da-ab3e-7b309d405891,-1.69997,29.74975,0,0.3333333333333333
1246,ac593abc-1800-4663-b390-b031dd82e752,-2.58906,29.67233,0,0.25
1247,a3b4e74a-6057-4ba3-ac58-ab3e3577a65e,-2.49708,29.90575,0,0.5714285714285714
1248,8eeef4f8-a7e0-4673-b3be-88e6891765c7,-1.43639,29.86031,0,0.0
1249,be3d4cdb-6554-4788-aeb3-bccfe7963ef0,-1.66744,29.74922,0,0.3333333333333333
1250,ed00ba35-776d-4d16-8048-ecf5ed4f8e89,-2.1855,30.09581,0,0.375
1251,f21fdb2b-7b65-4e5d-a89f-d28d3448f35e,-1.41964,29.72897,0,0.3
1252,0af6978f-40eb-4df9-b1ab-01382bb591bb,-1.65472,29.63486,0,0.6
1253,1e585a31-ccc9-4c77-ad83-951b66264e8a,-1.56347,29.69328,0,0.8333333333333334
1254,dbe0ad0e-ca46-4118-b254-2d822be89d92,-2.21706,29.51631,0,0.5
1255,857fd8a5-c512-48ec-a9d1-b0af2509df02,-2.70208,29.02214,0,0.18181818181818182
1256,d0ca0bfe-71ba-4b0d-a4f2-2118dd734005,-1.94453,30.15431,0,0.3333333333333333
1257,71db5713-6976-46e5-8191-9cf543bdb2a6,-1.89883,29.30906,0,0.5
1258,462f659b-14aa-44d4-8da5-916786315e80,-2.28494,29.52397,0,0.3333333333333333
1259,7cc598ab-b232-4c6b-a3a7-24c1d45ff60f,-1.93936,29.38386,0,0.6
1260,77d8e4c7-5a1d-43aa-9cd4-1438179c5b63,-1.95639,30.17075,0,0.37037037037037035
1261,c5b04442-7261-4b3d-b968-7d027aec9a2e,-2.29672,29.25728,0,0.5714285714285714
1262,4990a11d-ef3a-4406-bc59-a8abb9029962,-2.005,30.06564,0,0.4444444444444444
1263,26f0d749-70c9-443b-b9fb-456f2dee652c,-1.44931,29.708,0,0.42857142857142855
1264,8eae5374-a33c-49fd-a554-3ff8ccb6c634,-1.85483,30.57006,0,0.0
1265,c4decc7b-5202-435b-8edd-c596b2eda025,-1.70361,29.83747,0,0.2727272727272727
1266,349de576-e979-4a74-86cf-ad38b95c6b9d,-1.93125,29.68997,0,0.375
1267,aa0a2736-7af5-464e-8b1d-6de1f15d0796,-2.64006,29.82031,0,0.6666666666666666
1268,29f570b2-7cb4-41af-ab96-10fcee69af7b,-1.57667,30.23556,0,0.5
1269,cbedc4e8-a761-43ca-b5a7-d4bfcbffe9fb,-2.75131,29.76725,0,0.6666666666666666
1270,94750925-c4b1-4342-a58e-7496e56b102d,-2.43583,29.01797,0,0.6363636363636364
1271,30adc527-31a5-4840-abdf-82e8c7e3c615,-2.57175,29.73647,0,0.631578947368421
1272,50660f49-edb9-442e-9b85-1d630955bbaf,-2.29956,29.15553,0,0.7
1273,17b1c801-1d96-43b4-9e5c-bc8ca27c52a5,-2.45664,29.56686,0,0.8333333333333334
1274,bf2bdd21-e2eb-49a0-a743-f72fca4d9690,-1.72311,29.85264,0,0.2
1275,e7cdb2f0-b85d-4def-8183-8a93eeda5f47,-2.0035,30.02331,0,0.6428571428571429
1276,63364632-11a4-4653-9c2f-a47b88a31165,-2.069,29.40219,0,0.5294117647058824
1277,0c7bb9c7-d086-4586-b63b-11b28828648d,-2.56308,29.00272,0,0.6
1278,ef78fcde-ce49-4bdc-a3f1-1bb074186a40,-1.41536,29.85256,0,0.25
1279,895790a8-d29b-4511-8059-4f2fb7fa9985,-1.83172,29.38753,0,0.5
1280,663d9a1a-9092-424c-a1a3-292a1c3a4afe,-1.53969,29.54486,0,0.5833333333333334
1281,7368f56b-1982-4d19-ac69-c68aeba38fc3,-2.01247,29.76136,0,0.25
1282,9f97a59d-8d96-465f-8f39-61db85bc6667,-2.03178,29.54658,0,0.2857142857142857
1283,934dbf64-b90b-4e9c-8b93-d428ce386287,-2.00939,29.64708,0,0.8
1284,9454c0a7-acab-4caa-b871-6da61200b231,-2.36742,29.04703,0,0.42857142857142855
1285,72cc1e7f-27ad-458e-94ff-efdad924e80b,-1.98389,29.36806,0,0.3333333333333333
1286,385ce73a-e59a-4180-93b4-3688f725bcf6,-2.47761,29.63133,0,0.6
1287,90c50d34-0ec0-4b55-8f5e-4d2c527a94a5,-2.45925,29.66233,0,0.7142857142857143
1465,b51ecf1e-8ecc-4446-8e9e-a5a433fba174,-1.7799,30.0261,0,0.5
1471,47ad066b-36be-4596-bf7b-e471c6b65bcf,-1.58361,30.38361,0,0.0
1472,7f68df1c-41f5-46ea-978c-5aeedc462dab,-1.76514,29.61342,0,0.5555555555555556
1473,5749f802-21e5-43c2-ae7c-42d6bf5c221c,-2.49125,29.48089,0,0.3
1476,f3e4e05f-3ad8-4ccc-8d12-9db7dd6c9124,-2.12992,29.35244,0,0.14285714285714285
1509,d7f0b3d9-67b9-4bff-ac6e-ac5cae01114b,-1.82008,30.168,0,0.75
1510,a9b094da-fa43-46fb-98d6-00e32ebc568d,-1.37197,29.73042,0,0.14285714285714285
1511,1a325c4d-1a91-4a23-9fa9-7a0aa6929730,-2.58528,29.90436,0,0.0
1512,6676f6a5-4427-4225-8d16-8e1b97326476,-1.92411,30.06106,0,0.5454545454545454
1513,432c4b93-3161-481a-b43e-15d182b785ad,-2.74458,29.84197,0,0.14285714285714285
1514,eb1a87d6-6290-4b1a-acf9-55387146c4d6,-1.76042,29.31603,0,0.3333333333333333
1515,8729bb06-9153-4080-9d9a-643b3773e90e,-1.60156,30.37928,0,0.45454545454545453
1516,19d2e5dc-17ee-4ad4-a87e-8ff413c9613d,-1.36503,30.36542,0,0.3333333333333333
1517,4b2c5bb8-1c3d-4d7a-b76e-de878eefae5c,-2.20519,30.07019,0,0.5
1518,d2885334-f6bf-4d64-b924-4ddbdad9c8c9,-1.696,30.00178,0,0.2
1519,0c1d208a-9356-4762-9449-973358dcba1a,-2.21925,29.96139,0,0.0
1520,025a9d79-9593-4c47-8697-fe5ad1802dc7,-1.83289,29.58019,0,0.5714285714285714
1521,d96d3656-09ca-481f-be2e-64fd008620b3,-2.14336,30.59294,0,0.8333333333333334
1522,4db26417-5b85-4aa7-ad82-46624963bc7f,-2.36825,29.59803,0,0.0
1523,b6e429fb-120a-4bb1-89e8-1b85422da662,-1.60522,29.92906,0,0.2857142857142857
1524,6fc6fa67-2972-4859-9759-d315a0d6076b,-2.01133,29.57506,0,0.2
1525,69942fca-6043-4297-b9b7-4f3c62d9868f,-2.46386,28.90508,0,0.3888888888888889
1526,dc897493-85da-46bd-bc63-a7c5bdd46b26,-2.16339,30.10353,0,0.42857142857142855
1527,f0f5752e-3098-40ef-8e01-decf3da597b3,-2.21578,29.60711,0,0.0
1528,e6b4416f-c686-4550-bfcd-8397cbee5b53,-2.53708,29.72147,0,0.6666666666666666
1529,06f5fe19-3393-47c6-8cf5-c738e83a792e,-2.51269,28.97722,0,0.5
1530,56bcf68b-4184-4e59-b08b-0f880aa6f4fa,-1.52172,29.92406,0,0.0
1531,f45f6ce0-5a07-435f-8b0c-12409908ccb4,-1.828,29.54658,0,0.25
1532,049efe78-914d-4afa-82d6-b67e5c1e3bed,-2.37022,29.13161,0,0.6666666666666666
1533,e7101887-da28-4aef-be2f-1ec363d34ae4,-1.66961,30.16361,0,0.5
1534,0279f9f7-00b4-46ff-9160-a3e95422bf07,-2.35567,29.42433,0,0.5
1535,c469c744-b0e2-4dd8-bacc-63dc81af391f,-1.89033,29.44047,0,0.25
1536,194ff516-2017-4173-9e15-a6d79e0794a1,-2.00225,30.21142,0,0.5
1537,4ec863a1-1bdd-4f59-acbc-9fea12411c84,-2.25278,29.51431,0,0.3333333333333333
1538,08711be9-0c19-4448-bcf7-1c9629f805ff,-1.60325,30.26286,0,0.6666666666666666
1539,db8f8cbf-6e44-4c9c-b444-a80bcb50ad83,-2.50894,29.81961,0,0.0
1540,9d168b88-1502-46b1-84d8-27981c60e185,-2.11722,29.40389,0,0.2
1541,c1ba45f8-5d73-4f6b-a0b2-bc8dca8488bc,-1.84272,30.05569,0,0.75
1542,6353cb74-23a0-4516-bc05-dc2b4b79bba4,-2.23142,29.85403,0,0.0
1543,72a2982a-917e-4cbd-a87c-eddf1479b281,-2.01211,30.046,0,0.6
1544,38b6e687-3b72-4f2c-989b-9dd33859805a,-2.19953,30.20536,0,0.0
1545,f3a66830-a568-4749-b7c8-fcaf7d8a1e17,-1.80925,30.56233,0,0.5
1546,791655b3-c9a8-4422-9758-32b2fcded700,-2.29369,29.447,0,0.16666666666666666
1547,2bf76a92-891f-4314-905f-7bce369cf3c6,-1.85925,29.51225,0,0.3333333333333333
1548,3daef606-04d8-4b22-baed-f85afcf1361a,-1.36484,30.15196,0,0.0
1549,ce025da4-356d-48b4-84a6-0e8927a89c99,-1.48017,30.15617,0,0.0
1550,6b1c65ce-8a6f-45f9-b0d0-cb92e5cc30ce,-2.00906,29.46436,0,0.25
1551,ca78ab83-dd84-42f7-a766-40b084eea596,-2.22,30.72264,0,0.0
1552,55f717f3-1520-4342-a755-6012a514c169,-2.43914,29.19831,0,0.25
1553,d1fe795b-b2eb-4e1f-93ae-78e5b9a5108a,-1.69364,29.26233,0,0.4473684210526316
1554,44b043fb-36a1-4958-8a0b-51fa6daed644,-2.15244,29.61233,0,0.5
1555,162f8089-c9a5-4375-b24c-953bb2b8151f,-1.62694,29.94722,0,0.2222222222222222
1556,db9d0f7c-bb39-4752-a312-0b2be0baa973,-1.92964,30.52472,0,0.4
1557,a19052fa-4ace-4218-adc1-7c0c35fbe8c9,-1.7255,29.28236,0,0.14285714285714285
1558,9b65edc3-013b-4272-96c5-777c6c9b7b81,-2.1735,29.43483,0,0.2857142857142857
1559,9df11321-3f1d-44d9-8e27-d25a2a78a9b5,-2.36775,30.56711,0,0.6666666666666666
1560,7f590c1e-92a7-4527-8791-0cb9431558e5,-1.59217,29.45042,0,0.3333333333333333
1561,8be8fc09-8dba-4ca1-bf51-8f194f7df48e,-2.40628,29.19761,0,0.6
1625,151beee4-b3c9-40e0-9322-d0c68d9b59f7,-1.79983,29.32497,0,0.3333333333333333
1626,5a349cf6-81d1-4e85-a615-d74a15dcd919,-2.17133,30.06892,0,0.0
1627,3c026c05-5328-4a95-a26a-1edcfa8db95c,-1.7945,30.01036,0,0.42857142857142855
1628,3edbe1af-6134-4e08-b964-497db920e384,-1.56378,29.59775,0,0.7142857142857143
1629,07bf8eab-d35e-4a03-b736-5cee264e1dc7,-2.03997,29.51678,0,0.3333333333333333
1630,1fbac90a-4f94-4fa8-9024-4a894563fae0,-1.74361,30.50517,0,0.0
1631,7f5d2a3d-cb94-494b-bea4-05f885d2383b,-1.96761,30.11103,0,0.47692307692307695
1632,b5962d9d-e857-483e-8424-68062a843523,-1.79883,29.57853,0,0.5
1633,46eb7e39-48e5-4b17-8677-88d8d825117c,-1.62028,29.9575,0,0.375
1634,94ddb978-0c98-484d-a8cf-1b1c99e09b12,-1.59708,29.32903,0,0.625
1635,a32c5f3f-20ee-45b0-abee-268ede339d0a,-1.73858,29.93764,0,0.4
1636,ef10a2e6-df51-473a-9d09-4bd7bd36574a,-1.92964,30.52472,0,0.4
1637,d3d05af9-de33-4acb-84f2-632b2308c728,-2.61236,28.94783,0,0.16666666666666666
1638,523790fa-c026-415e-adaa-7bff3f211eb3,-1.77719,29.29939,0,0.125
1639,2c850c9e-b6a0-4c79-9c33-5bc519fafb65,-1.83667,29.3275,0,0.5
1640,03395b17-13c7-4dfc-8e58-0d8c5f60bcad,-2.14536,29.30286,0,0.42857142857142855
1641,9fa0445e-4e3b-4b1f-8bbe-1a42d67c8f0e,-2.37028,29.45736,0,0.6
1642,f84d61e5-5a14-4ca2-b2e7-b54daf047947,-1.81069,30.07633,0,0.4
1643,f4b1299f-2abd-4fce-bc28-c2ba301748f9,-2.49147,29.01944,0,0.6
1644,08b63bfe-88f8-4f57-83d8-37273576d209,-2.40417,29.10678,0,0.5
1645,c191576e-012f-4075-9e80-35d15ae74c3c,-2.38617,28.99056,0,0.0
1646,00fcc478-d035-448c-a2de-14b13432c403,-2.2795,30.07956,0,0.0
1647,822db13d-9203-41a3-b539-89b16c156bab,-1.97672,29.44275,0,0.14285714285714285
1648,61ab3313-15f4-451f-a0d6-bf9260e173e9,-2.50633,29.49064,0,0.4
1649,971a2d96-eb4a-4ade-8b27-77d698f4cbba,-2.09739,29.48747,0,0.5714285714285714
1650,f1f085d9-23b8-4648-a9b4-1113a2e80833,-1.64056,29.3115,0,0.5
1651,27c09aca-e200-487b-b514-f026f2e2480b,-1.53881,29.36814,0,0.2
1652,a8eba8c9-a24e-4009-a18e-89a7924c5a41,-2.33356,29.46322,0,0.5
1653,cd580b41-168b-4c99-a837-5209af8e9423,-2.21919,29.48894,0,0.3333333333333333
1654,afe742d8-29ec-4b1c-9120-fe4ce597e999,-1.69253,29.30461,0,0.4
1655,08cbc2e8-453d-4117-b617-f981051e76fb,-1.80003,30.1475,0,0.6
1656,f3394ad2-f50c-436e-9365-643cf695c1a9,-1.86011,29.85575,0,0.5
1657,a5dc4566-cb8e-4b63-b17e-6480b7be0198,-1.70317,30.13472,0,0.5
1658,4c1e22fc-5a51-4c4b-9047-cf613f19a781,-1.82733,29.29083,0,0.2
1659,4e1e129a-f194-4f41-bedf-812d44a79823,-1.95603,30.08181,0,0.6455696202531646
1660,d193dd87-b39c-4a61-9bbd-f3d3a422353d,-2.52861,29.56094,0,0.42857142857142855
1661,ef32ce41-185a-44d8-92b7-5f1f2c06423d,-2.65472,28.96736,0,0.5
1662,aeb8a603-0679-4267-9262-ead0df244bdd,-1.83031,30.10442,0,0.0
1663,ac31d278-1d40-4f20-b76a-b6c4106d4c08,-1.95878,29.42744,0,0.2
1664,b25b9cee-81c6-45c0-8d9d-33a96f027b06,-1.92736,30.22347,0,0.2
1665,6d95a8bc-f062-4a3b-8b35-dcd7902be1b1,-1.97561,30.07217,0,0.5897435897435898
1666,4bfcb02a-cabe-4a47-8217-b702e2fb2f97,-2.31369,29.23311,0,0.7142857142857143
1667,4bf73474-16e3-408d-96ea-b0bd9f1beedd,-1.69169,29.34125,0,0.25
1668,b34acae8-b36e-4a8d-af94-8a12ca67f2c0,-1.89356,30.60619,0,0.0
1669,006c96cb-e898-4263-b5f0-99ac067f427e,-2.74108,29.73817,0,0.25
1670,601ed2c7-d80e-427b-b0dd-829cb79c8a9a,-1.90561,29.45692,0,0.25
1671,a2f0fa44-266b-4d8f-a116-cd6043eed9a3,-1.85158,29.91803,0,0.5
1672,ca9587f6-d26f-4b78-b5b4-72d3967f64ce,-1.9315,30.04442,0,0.5294117647058824
1673,9df12c9a-6efe-4956-85fb-6c221ffaefcc,-2.20789,29.95325,0,0.3333333333333333
1674,41df077b-01fd-47c6-988b-3974cb21db37,-2.612,29.01544,0,0.4444444444444444
1675,ecc1f629-b082-430a-aa44-0258ef929350,-2.01958,29.84653,0,0.6666666666666666
1676,fe14fa8b-685b-4183-904b-fb8a4098e8e9,-2.63458,29.59984,0,0.75
1677,964b53b9-45ec-49ac-b867-8beafd1f876a,-2.37742,29.75981,0,0.8888888888888888
1678,5f21f9a9-4d15-401f-8fcf-60ef39083aab,-1.39911,29.72581,0,0.2222222222222222
1679,a64a4acc-18c1-4db0-ad6b-12bf74874650,-2.71083,29.02764,0,0.2
1680,53d6ad20-bad6-4ceb-b93c-e659330dcf4c,-2.07011,29.46889,0,0.2
1681,dcab64f1-28a9-4b8e-88a6-6fb4747037e3,-2.42069,29.46719,0,0.42857142857142855
1682,9783eabb-e4a6-4c38-a66f-230ef3b8e808,-2.70383,29.4325,0,0.8
1683,47fac23d-a168-4b72-846a-a9068e5a00c9,-1.99128,30.51731,0,0.25
1684,088fc0ec-4e4e-43a4-b11c-9b065e921c3c,-2.0515,29.59058,0,0.5
1685,6f33847d-8f2c-4ecd-b004-379731c68f26,-1.92289,29.43225,0,0.0
1686,909ac0ed-764c-426f-af19-e130371328dc,-2.65889,29.64633,0,0.3333333333333333
1687,7bd45e48-e53c-4bd8-8c25-fe234b8ea78a,-2.06728,29.73556,0,0.7741935483870968
1688,7dcad804-ccfd-4ed6-817d-4dadb1dd3c09,-1.79467,29.30678,0,0.1111111111111111
1689,f84d56ee-9677-4089-89cb-bf1a6925f449,-1.68128,29.96067,0,0.6666666666666666
1690,a4d371d6-9500-4a04-9c44-79ad31efcfb1,-2.31119,29.38431,0,0.0
1691,7055de55-81ee-4b9d-815f-e36089d46094,-1.08572,30.40614,0,0.5
1692,1e0d0af6-7cc1-4797-ad90-0b45c6e0b7ae,-1.46153,29.71922,0,0.3
1736,ab6a6705-9ad2-4334-96fe-8b0334cf870b,-1.96756,30.07769,0,0.5822784810126582
1779,c377afaa-35f5-4417-849c-4673aa657cf7,-2.67153,29.66369,0,0.25
1780,46f4cf64-6a7e-4c55-a15e-f4df58ed9892,-1.57367,29.42289,0,0.0
1781,0fac17a0-fc61-41e0-b57d-8677813e471b,-1.55753,29.36497,0,0.42857142857142855
1782,908fda19-e345-49f0-a625-fda98e222082,-1.97603,30.13564,0,0.3333333333333333
1783,d8f62631-403e-43d9-aa54-bb7c42011191,-1.70286,30.54925,0,0.0
1784,05c81565-570b-44de-acdc-51a3fb06d791,-1.64014,29.33361,0,0.375
1785,60606d6f-939f-41c0-b70c-9efe1caa13d3,-2.24744,29.8955,0,0.3333333333333333
1786,e1a46a17-aa10-4eef-a4bb-cd7a60275d66,-1.77067,29.96725,0,0.0
1787,b4140167-cc1a-4593-a5c9-713783cfb900,-1.54364,30.27081,0,0.6
1788,a81966c4-2c2d-4ca8-b66d-d634c97f8ead,-1.66836,29.41086,0,0.0
1789,5dbcf35c-1f20-4f32-9c05-d048734cfe90,-1.72439,29.34033,0,0.2222222222222222
1790,b07fa534-7777-4ecf-ba5a-027f45dadfa0,-1.81417,29.31272,0,0.1111111111111111
1791,f1192953-5b7d-4049-9e44-c2a7d9be6c62,-2.01703,30.10856,0,0.38461538461538464
1792,1fb35072-5757-4caf-868a-6e5effee8764,-1.96172,30.11994,0,0.5
1793,de02b592-b6f1-4019-baed-d27a52553d14,-2.15269,29.73628,0,0.45454545454545453
1794,f6400747-569c-438f-9d80-ae06aa686d3b,-2.23339,30.65853,0,0.0
1795,57814f97-1792-40d0-840d-4d45a2521e4a,-1.97917,30.09678,0,0.4461538461538462
1796,e3adf855-8318-4e30-ac3a-cd6498003a45,-1.52422,29.78461,0,0.14285714285714285
1797,6c229fba-70d4-4c24-9e65-f7deecc6ac50,-1.69597,30.02119,0,0.25
1798,b5c84522-5fd4-4f2a-883a-c2fd4239205c,-2.16664,29.81033,0,0.3333333333333333
1799,da230d93-6180-4bc4-83be-fd9fa0a4e6f8,-1.50794,29.843,0,0.125
1800,593fa7e0-0539-4b56-bad5-cd3d2e05f530,-2.16958,29.66211,0,0.42857142857142855
1801,52d3b968-500e-4b00-8bcb-25f94e5f3193,-1.67147,29.25425,0,0.42857142857142855
1802,6d0819f9-a576-4742-bf71-46231b78f978,-2.22739,29.90944,0,0.16666666666666666
1803,a70666ae-395f-4d4e-a25c-b1920f8854ed,-1.85347,29.61283,0,0.5714285714285714
1804,b36b9108-dbda-4c71-837c-1b65cad2a0d0,-2.08339,29.41078,0,0.4166666666666667
1805,45da34ee-6245-4775-bee7-1d0101de716f,-1.75733,29.28756,0,0.0
1806,5453686d-dbab-4a66-b01b-b29a82a1bac5,-1.69978,29.2585,0,0.40625
1807,ed4b137e-9b0a-46ec-9f12-58749f299706,-1.49411,29.76278,0,0.25
1808,078d5cd7-fe1d-4fc9-96b9-d7c73850aaef,-2.38956,29.78678,0,0.5
1809,23bff1df-9313-4a89-b1e0-9613bb1ff183,-1.61686,29.55844,0,0.2222222222222222
1848,9f03b469-2a13-48bf-b39b-68d3ec7d7c51,-2.05342,29.34919,0,0.14285714285714285
1849,76516b21-0597-4519-abb3-045213931ba3,-2.62253,29.90192,0,0.4
1850,b41237cc-f67f-4c3f-ad5b-1a0e1900e64c,-2.35333,29.70311,0,0.875
1851,394fbb0a-4804-409e-a921-e88e5a88729d,-2.38989,29.60992,0,0.4
1852,5e5a5e71-0366-4cf9-8cbf-1d88f133fd1e,-1.88578,29.59567,0,0.7142857142857143
1898,fc1704c2-3e9f-4728-bd6f-4412bb3d609c,-1.50522,29.97281,0,0.4166666666666667
1899,a3eadc1b-2e22-4685-8ee9-42bd48096739,-2.42933,29.44472,0,0.16666666666666666
1900,b0ba1ae5-ab6c-4eaa-9cdc-13cf7b711b0d,-1.62464,29.94767,0,0.125
1901,e06664c4-48d0-4ec4-a22e-a5a9ae927262,-1.76642,30.38361,0,0.6
1902,83825a32-44cd-4349-a5b2-c585b79f5e23,-2.25894,29.79428,0,0.4166666666666667
1903,9f87c8e8-a065-4595-a4df-bda8de111cfd,-1.81856,29.84958,0,0.3333333333333333
1904,9b9f17b9-8c45-4cd5-83e6-f96280d8b76b,-2.15567,29.74294,0,0.5
1905,7665128c-6033-419c-b907-411202c428ca,-1.79319,30.04039,0,0.375
1906,b50804b9-cc58-4940-a3b5-fa49618cea84,-2.22367,29.79419,0,0.5714285714285714
1907,132ba872-49e8-417a-8faa-f5713464b527,-1.99258,30.559,0,0.3333333333333333
1908,07c2a87e-5c2f-45f6-8393-1539c805f5dc,-1.49733,29.83417,0,0.0
1909,83160f7c-96c1-4763-81c8-321d4de769a1,-2.63231,28.94458,0,0.5555555555555556
1910,324d8cd0-b2ed-4675-945c-515275251478,-2.29753,30.04475,0,0.7
1911,652ccf63-237a-4668-ba73-5508f6463943,-1.96128,30.53597,0,0.2857142857142857
1912,ea7cfa48-b040-40c1-808a-8353677c5860,-2.18478,29.57881,0,0.2857142857142857
1913,4558e756-a4ca-4af6-9835-88f9643efcd0,-2.22047,29.49172,0,0.375
1914,ca92d2e3-e5f6-4deb-ad91-bc8ce476d90f,-2.06156,29.34906,0,0.2222222222222222
2037,d71b168a-2a87-497f-aee7-26f312095479,-1.74008,29.84811,0,0.25
2038,889df4a8-65ea-4a02-8863-fd9e770df001,-1.84617,29.89469,0,0.0
2039,3daac181-6041-4f73-8d3f-413d91b1586f,-1.95047,30.51867,0,0.375
2040,62e8964d-99a8-4a25-b6c2-72fd6e51812f,-2.51667,29.708,0,0.2
2041,a6fda3a2-e876-4b33-a282-6136d478dd75,-1.65722,30.03417,0,0.0
2042,1f6c13f1-98d2-4b9d-8177-3bc04e6e0a9c,-1.66644,29.45894,0,0.16666666666666666
2043,b470af04-ba80-4069-a457-bf4562e449d6,-1.32483,29.82989,0,0.0
2044,488ab261-f8d2-46f6-adcc-454aba2e26c4,-2.629,29.65231,0,0.3333333333333333
2045,e030eebc-97c5-42b3-8a27-200773e87458,-1.92239,30.07439,0,0.5952380952380952
2046,2502481b-fb9e-4bb7-9e02-43d5df8a8821,-2.12278,29.54544,0,0.0
2047,cbd13802-e3c8-4067-9da3-c0716a505807,-1.68611,30.33222,0,0.75
2048,d095ec0f-8c96-426b-b36e-fc67af6176f7,-1.71206,29.76589,0,0.5
2049,7741a2c7-c5c6-4203-8b9f-89b09891af1c,-2.08947,29.36503,0,0.45454545454545453
2050,f324bc54-7819-44f1-8756-31a16280dfdb,-2.25467,29.43356,0,0.0
2051,227d8d9a-94c4-427e-8b71-ed64728e8f3a,-2.13614,30.22525,0,0.6666666666666666
2052,5f16e124-a0db-4aca-ab97-844d074f7454,-1.71419,29.89911,0,0.5
2053,aa5e8967-a869-4124-8b58-fcf081e48567,-2.75669,29.44336,0,0.6666666666666666
2054,91e62e02-0a07-4c09-b5c5-de70296b10d3,-2.61775,29.04661,0,0.6
2055,e2c64631-0e13-4cde-b3c9-b02a5dbf8d4f,-2.15494,29.27653,0,0.5714285714285714
2056,f9f085ba-4d29-4e2c-a529-d01167674eed,-1.62861,29.83917,0,0.16666666666666666
2057,56fdc31e-3e17-4c8b-b7f3-98893a6a48fa,-1.7238,29.3778,0,0.375
2058,f9807558-ac37-4077-b8cc-88530655f637,-1.73894,30.06247,0,0.25
2059,88c65ef2-c73d-4787-b2d4-396547c0da03,-2.59856,28.93303,0,0.16666666666666666
2060,76d765f2-ec15-47c9-ba66-6bbdae7d2217,-2.2105,30.486,0,0.6666666666666666
2061,95b2f8dc-1756-419b-851d-eb4b65897e1d,-1.281,30.4265,0,0.5
2062,a18bf4d8-9836-4528-8dac-d6da23f7d0ef,-1.58642,30.03047,0,0.6666666666666666
2063,b271f38c-410d-471a-aeee-7f3c754c0ad7,-2.366,29.56397,0,0.25
2064,be53f484-a3fe-4eea-85f9-1bdd9cc41fec,-2.53414,29.04294,0,0.75
2065,0608bcac-2b3b-4579-a1f1-8eb3e65976de,-2.19556,30.55478,0,0.6666666666666666
2066,f163989e-9989-4cd6-b5c8-338bfd49cc82,-2.34711,29.40142,0,0.0
2067,a39d4ecc-7f41-4ec5-85aa-18ca19d8bb28,-1.91308,30.08714,0,0.4444444444444444
2068,08cbf4b3-05d5-4c77-abaa-5d1e9d8a51ac,-2.65469,29.04608,0,0.0
2069,3c8c5435-96ea-4c09-9003-1d253e79cfa0,-1.35635,30.19856,0,0.3333333333333333
2070,4105f2a5-9d89-4191-8aa1-5008fe9b18fd,-1.92578,29.35667,0,0.5
2071,5e8dbf1f-9cc8-4140-a91f-e8f32de3869b,-1.67244,29.33706,0,0.3333333333333333
2072,595ae99e-32ac-432e-8bfa-09f381d09316,-2.04089,30.53281,0,0.6666666666666666
2073,0d2a0713-5333-4a5a-8d2e-7e05a79042e8,-1.65514,29.36069,0,0.2857142857142857
2074,4cac2dc5-0a7d-4ae6-b5c6-a6b69655dd92,-1.41561,29.79278,0,0.0
2075,eaf71664-52e8-45ae-ad38-bcaf7111f2dc,-1.65147,29.64772,0,0.5
2076,e89a0d12-8a15-4620-bf68-56333ea96fc7,-2.052,29.44444,0,0.5
2077,af07a08e-4134-4421-b2ca-39884a8e3c50,-1.93108,29.72522,0,0.4
2078,b2fb253f-9050-4df7-b70e-cc9ec9c0fcea,-1.92742,30.63175,0,0.0
2079,2d9821be-28af-4615-8cb0-499b24f651df,-2.58653,28.97694,0,0.3333333333333333
2080,30c0afd1-beb1-4a77-9dab-9a03c7198b9c,-1.82178,30.47856,0,0.4
2081,ed95d89f-feed-4d91-9642-2d786804c4fc,-1.99536,29.76083,0,0.25
2082,d5d1d826-ef51-46e0-8716-d97c59403973,-1.63817,29.81825,0,0.1111111111111111
2083,e487030b-b46d-44b1-a899-4977adc9251e,-1.59019,29.55972,0,0.375
2084,3e5528a0-13c4-4656-abc9-cedfc8188fa8,-2.50231,29.01242,0,0.6923076923076923
2085,f754d211-3759-47c5-9d7c-581d9b19fc2d,-2.00881,29.37731,0,0.6
2086,6af0685d-27b8-47b8-ba3f-37dd295a9a8d,-2.20931,29.37336,0,0.0
2087,85033765-122c-4516-93d3-a4104d04aac5,-2.61564,28.99106,0,0.4166666666666667
2088,812bc534-e286-4c66-bba5-d17464db4fc4,-2.58872,29.12494,0,0.0
2089,529808b2-abd4-4668-8460-ee9edb43c4b1,-1.75183,29.37475,0,0.5
2090,160e2d78-ca98-480f-bee4-8291231e06a0,-1.75831,30.54194,0,0.0
2091,8d8e54b9-cf8e-4067-bddb-62356cc22d44,-2.35219,30.26625,0,0.0
2092,26f1e1c3-37d5-4712-8eda-c876bb9700c5,-1.68261,29.85922,0,0.2
2093,2df34d64-19d4-49f8-bf42-91f571aba86b,-1.95231,29.68569,0,0.6
2094,12c907a5-304f-4d27-b260-53e34b4c2bf3,-2.03008,30.59594,0,0.3333333333333333
2095,cad1e39a-e71b-4e8b-a981-7542637d7545,-1.72486,29.992,0,0.0
2096,4b3139df-d085-4559-87e9-30978288cdc8,-1.60164,29.41917,0,0.125
2097,57fca039-5db9-4a21-b482-f84c434e6984,-2.1205,29.32186,0,0.2
2098,0d0d84f8-93cd-479e-a995-95d2794b7a4a,-2.0605,30.58861,0,0.0
2099,1ec190a9-5568-452a-b47e-93071e854d41,-2.24069,29.45372,0,0.0
2100,360db223-15ab-4b1d-9943-a3ea6e2001a9,-2.13511,29.31594,0,0.3333333333333333
2101,a445d104-b8f0-4f64-b40a-5a3e688fdbb6,-2.22306,29.39811,0,0.0
2102,b562853b-87c6-4c61-a8d3-ccf9dc35ce8d,-1.82125,29.75624,0,0.3333333333333333
2103,55c279af-1ea4-4c07-bcf5-559b2ac1b77c,-2.278,29.38825,0,0.0
2104,48ad994f-7403-4b9f-a0e7-1e293f304cfa,-1.668,30.02444,0,0.0
2105,188e327a-bb06-4f60-af2d-d50f8a1c610e,-2.20467,29.41161,0,0.3333333333333333
2106,56c71934-5ffe-4c1b-9153-87afecfc56d8,-1.64303,29.35536,0,0.125
2107,a953cb24-a19f-4bb8-9e08-6917c5b6d9e1,-2.17194,29.64097,0,0.42857142857142855
2108,d6fe7bc3-7328-4ac8-be0b-8c3b88505c0a,-2.04106,29.49117,0,0.0
2109,3bf8f9a1-1d5a-42e2-8a00-4c62b042fbf1,-1.9675,30.17644,0,0.375
2110,b53f4d45-7a01-4ea0-ac25-27973c5ad6b9,-1.38578,30.23428,0,0.8571428571428571
2111,ff8d63aa-6dee-4a5c-a75a-14660d8745d4,-1.69103,30.44714,0,0.0
2112,d1303cfb-2f45-45a4-90ed-1a075d2dce9c,-1.56675,30.20361,0,0.0
2113,867d37ff-4bfc-4f00-998f-47bd69a9caf0,-1.49083,29.79758,0,0.0
2114,4dcabca4-d993-4585-b734-19831d3b3b6c,-1.43094,30.24158,0,0.5
2115,e2987553-848d-45e5-a264-d4896b20a799,-1.79722,29.98564,0,0.0
2116,b943009e-cfeb-4e60-af3a-2683bdf86799,-2.22494,29.68692,0,0.5384615384615384
2117,03770bee-8fe4-4076-89c2-8e1faafc1968,-1.65197,29.38203,0,0.3333333333333333
2118,728f3569-f9c9-4337-af27-837395962299,-2.70528,29.04214,0,0.2
2119,4f21a517-cd83-4b0b-aa02-e09c0b7428b5,-1.82581,29.9755,0,0.0
2120,d4b333aa-8dbf-4c15-acd6-c9eb8d817bf2,-1.69444,29.29083,0,0.4166666666666667
2121,74d59031-65da-4fba-bcca-6ce1e3d15856,-1.89156,29.46058,0,0.3333333333333333
2122,7d63d975-e4bb-475a-89e7-113154ac43af,-2.11542,30.03778,0,0.3333333333333333
2123,d9d91ae9-9991-4fb4-9ccd-bc10e309de38,-1.74736,29.34186,0,0.3
2124,ea976d47-b73f-4ff3-97c5-d328e652515a,-1.82525,30.41561,0,0.375
2125,b9e57154-4a95-4158-90fd-27867433cb59,-1.63128,29.7345,0,0.18181818181818182
2126,df5bff3e-4957-4451-89c7-8947f6aaff36,-2.16681,29.68806,0,0.5
2127,b4d05d35-9070-4cc4-b652-18fbc788866f,-2.16372,29.48981,0,0.4
2128,b087190c-f4b9-439f-ab33-c1973db27a56,-2.21333,29.32786,0,0.3333333333333333
2129,bd85e83f-51b7-4716-bb38-3426506216af,-1.7405,29.27867,0,0.16666666666666666
2130,b084fdcf-d1bb-4181-bfd6-98de68c753c7,-1.65481,29.77703,0,0.45454545454545453
2131,16f837ae-4ffd-49da-8923-552c1bcb04b5,-1.60681,29.65342,0,0.42857142857142855
2132,1e2cc98c-0cb6-441c-aa5d-eb2c9dcbca9f,-1.67592,29.90694,0,0.2857142857142857
2133,e7414f8d-ba47-4c60-b448-c80086001571,-1.37714,30.42333,0,0.0
2134,f0060ee0-29ee-44aa-855f-9a01a61b6554,-1.92133,29.26392,0,0.5
2135,886a4587-dd60-4969-b673-8ee05d7331d8,-1.76242,30.35681,0,0.6
2136,63bef9c8-8050-46c1-b440-238f916464cb,-1.69181,30.07078,0,0.3333333333333333
2137,5493c186-75bc-4417-ba09-5ab46fd1b6c4,-1.80739,30.39386,0,0.4
2138,37226072-5f12-4ce0-a6fd-197e29b2aee2,-1.53419,30.17522,0,0.3333333333333333
2139,ce435195-e62e-47be-a7c4-c6854d2ea48d,-1.64414,29.70897,0,0.2
2140,203f45ac-7479-4922-9e8c-b89269282d12,-1.58472,30.205,0,0.0
2141,a76eb780-7d8d-4053-9a2c-6974f1cd7f3d,-1.623,29.86858,0,0.5714285714285714
2142,62087aeb-8a74-46b7-b8b3-cece45a98e37,-2.50853,29.61233,0,0.5
2143,51f2a664-9b4f-4516-be63-13015eb138ab,-1.40217,30.29575,0,0.0
2144,55e9978a-cf7c-42a1-9b94-914d9a80b3fb,-1.71481,30.052,0,0.0
2145,1b67d2fa-5fd7-4dc4-87be-4d9679b22547,-2.57678,28.91756,0,0.4
2146,c24b9479-062c-41c8-9e66-a0bdc883b55a,-1.74658,30.27667,0,0.6666666666666666
2147,ee1d2e42-9451-435c-915c-61ed30eab093,-2.58853,29.17344,0,0.4
2148,b68b6252-bf3c-4c02-84cf-475ec3a40131,-1.69039,30.26064,0,0.5
2149,c5b774f2-0ca5-4e9b-a178-7c5ffca7639f,-1.88936,30.25794,0,0.25
2150,48313e3f-fb2e-4dc4-be4e-c165c4f0b387,-2.56367,29.01789,0,0.625
2151,cbad820a-ef3b-4ac4-a544-8ff481b7748a,-1.91953,29.41397,0,0.0
2152,deaff340-659c-4c31-b4ca-46ffedeeb202,-2.28972,29.52319,0,0.3333333333333333
2153,737b1e49-11af-44f2-9cd0-e07fc3975906,-1.96394,30.15361,0,0.35135135135135137
2154,7411d23e-edf2-44f0-8d4c-9d0a249e3eb7,-1.89269,29.78014,0,0.3333333333333333
2155,338a1c9b-dfcd-4937-baaa-d1922ea9200d,-2.42206,29.62528,0,0.0
2156,e62ec86d-5483-4b7d-8feb-d0ebe93729cf,-1.84419,30.19394,0,0.0
2157,80f4d24c-cdf6-41b6-a2c1-41e7d68da52e,-2.14936,29.35786,0,0.25
2158,d4b95902-fd88-47c3-948a-906806c7155e,-1.74389,30.44206,0,0.5
2159,32daa078-cde5-454b-80a0-700f5f1a543b,-1.65325,29.5755,0,0.3
2160,55200656-fd0a-4a4c-9b95-b5869270c95c,-1.61414,29.44936,0,0.1111111111111111
2161,18ed207a-e30b-44d6-9020-fe597d41e203,-1.41094,29.82042,0,0.42857142857142855
2162,0b2893cb-b6c1-4f1d-84fe-d9732f9e7523,-1.52422,29.36031,0,0.25
2163,ad680dd7-03b2-42e7-a91f-727492815db5,-1.62122,29.42294,0,0.1111111111111111
2164,0124a7bc-495c-4baf-a539-222beccf4154,-1.8265,29.87283,0,0.2857142857142857
2165,18d8d197-8d38-446a-b4bd-980d96ca39b4,-1.59619,29.38853,0,0.0
2166,b1a1d388-be39-415c-981d-c6016d0399bb,-1.72719,29.52994,0,0.42857142857142855
2167,c7e13203-9b09-4736-baa6-71f2e4007349,-1.91694,30.55225,0,0.0
2168,276c6c29-8028-45d6-a033-5b36f5c38b4b,-1.54039,30.10303,0,0.6
2169,cd34754f-6731-4fd9-a911-fd78a58aef79,-2.11275,29.42106,0,0.14285714285714285
2170,a93a0b65-29c9-4eae-84c7-4b2938b75ab0,-1.71331,29.67711,0,0.2857142857142857
2171,8662eb78-2c42-48ed-9a6e-1a6f2dac43be,-1.52889,29.38672,0,0.14285714285714285
2172,1b90d7d5-4afd-4c5d-9b70-c79c8920097e,-1.82792,29.94778,0,0.0
2173,3ffc1b77-fa35-4457-bba9-08e974537457,-2.03228,29.62072,0,0.3333333333333333
2174,5589c6fb-afcf-4cb1-bf6a-588c81969ca4,-1.79919,29.29425,0,0.0
2175,15092107-b4b0-409c-ab90-c27462499ff9,-1.89883,29.29506,0,0.5555555555555556
2176,1f9171da-a812-4a22-99df-19d8ffa6b92c,-1.87528,29.35131,0,0.375
2177,c5f0ec29-d2ed-42ac-914b-b5c9bbb539b0,-1.88058,29.38981,0,0.25
2178,79a8a2c5-084e-477f-943b-49bfe1aeba48,-2.33967,29.52161,0,0.25
2179,18b57771-76b2-4a50-bb4a-b3099dd4d1e1,-2.03728,29.59981,0,0.5
2180,14aa2edf-102e-4912-a9a7-d94a88e76706,-2.56725,29.099,0,0.16666666666666666
2181,f748262b-c5c7-4c3d-beab-a0605f7645e3,-2.45242,29.40681,0,0.0
2182,28e59d73-d2de-414b-8f89-ca536f13989e,-1.59833,29.54222,0,0.38461538461538464
2183,15040d68-f611-4c1f-a03a-3c9dd3439f65,-2.03578,29.56861,0,0.14285714285714285
2184,e2fb4f77-2f22-4328-b209-ec9ea8ce9ee2,-2.50878,29.58914,0,0.38461538461538464
2185,7547902b-0187-40bb-8ebc-780535ef4a39,-2.58506,29.05106,0,0.6
2186,da3a47c4-44e8-4a5a-91b3-3c280935ca40,-1.98836,29.43708,0,0.3333333333333333
2187,9ac5a72b-8da4-4cee-902d-ff61c0141901,-1.99678,30.55867,0,0.2857142857142857
2188,786bd4f0-c133-41cb-a274-4a20fdf87273,-2.22869,30.54286,0,0.0
2189,6179b291-78d9-4445-ac48-0180da2cd1d0,-1.81769,29.50675,0,0.25
2190,0a016db3-c331-4213-a6cf-95db8d12b73b,-2.59861,28.91758,0,0.0
2191,452cde03-d091-417a-bbb0-42844e8bc5f9,-2.07808,30.09236,0,0.3333333333333333
2192,673b4ae5-b040-44ad-bc1c-1a1ab8087a27,-2.33408,29.02303,0,0.5
2193,cf7bc67e-cdcc-4ab5-aac5-ba295ac8d08f,-1.93719,29.457,0,0.3333333333333333
2194,35b97586-02ca-49e2-b79a-607267c596f1,-1.96381,29.71572,0,0.0
2195,dbb23b9f-43d9-4c1a-a155-e8a68da07899,-1.59042,29.53139,0,0.45454545454545453
2196,798a90b3-2209-4801-9d36-6b90d7e9dd95,-2.46586,29.49658,0,0.0
2197,045ed7d3-1532-42fb-b246-303123b863b2,-1.96411,29.46469,0,0.0
2198,908bde13-12cd-4da3-a56f-8c348afdcdcf,-2.17817,30.15494,0,0.75
2199,4d7f32b3-67b9-4fc2-b1ef-015d7429203f,-1.59283,30.01147,0,0.5
2200,8a5edca3-8796-4d7e-8ce9-95f883d4b958,-2.56933,29.08658,0,0.42857142857142855
2201,89abb465-6458-4f1e-a09e-2f634c2652fd,-1.55056,29.39322,0,0.16666666666666666
2202,7b269a82-636c-48dd-8bc7-105d0be984ef,-2.13919,30.51892,0,0.75
2203,c4d622bd-c2f7-4b7e-b31a-37d0d189c39e,-1.67114,29.72172,0,0.0
2204,130fd0a9-cc05-46cd-87b4-dbd797dbc3ea,-1.91383,30.10864,0,0.65
2205,7b5fa678-49eb-45a3-bdea-5778257b2b48,-2.19611,30.56244,0,0.3333333333333333
2206,bb663dbb-18f3-432e-8624-5486bd936698,-1.95217,30.11858,0,0.5892857142857143
2207,c49fe7df-9f44-4045-832d-3ad446019530,-1.686,30.06086,0,0.4
2208,dd7ae1b5-c521-4587-b2a4-20ab708573a2,-2.332,29.13494,0,0.7272727272727273
2209,4e272d78-0c3b-4652-9fdd-884909f04dcb,-2.09903,30.172,0,0.5
2210,e47c6d99-14d7-43e1-8f0d-9d9c776a192f,-1.81708,30.23019,0,0.75
2211,231061ab-5efa-49ec-b522-f5938a816c03,-2.12286,29.79258,0,0.5
2212,8fbd9892-87ad-4809-b6a7-9bcd223aa4ec,-1.90239,29.34678,0,0.5
2213,53dc1072-43b1-4793-9a90-16b2a2e43216,-1.69453,29.64961,0,0.42857142857142855
2214,99881835-c206-45cf-8b13-da8fbe4d99d1,-1.37842,29.80964,0,0.0
2215,befd35e7-b8fd-4ff0-91d5-13e3f9036cac,-1.79231,30.09603,0,0.0
2216,32395b4f-86c0-4fa3-9617-bb1958ba754b,-1.62081,29.7115,0,0.25
2217,bdf2d035-06b1-48b4-8f45-d2461e5846bf,-1.85122,29.38492,0,0.3333333333333333
2218,51416f35-d210-4499-ba54-d1ba52d9a228,-1.94658,29.48836,0,0.2
2219,f4c1c95c-4a25-48da-aa12-7c56c715b57b,-1.44461,30.21672,0,0.75
2220,d96c5076-130f-4c36-bc9f-13d05896b62a,-2.58575,29.68675,0,0.42857142857142855
2221,eee06231-641e-42d4-bd6e-e9cbde51281a,-1.72289,29.86567,0,0.23076923076923078
2222,78af8626-b900-4948-a9fa-bb17e5661135,-2.31119,30.64569,0,0.6666666666666666
2223,a1849a1d-7b41-4d9c-bfa4-f87eec6d9625,-2.16517,29.33256,0,0.0
2224,a386bbf9-f858-41a2-bcaf-a6090a523989,-1.37964,30.18139,0,0.0
2225,b2020c85-20d5-4693-bb4b-f97862e4c221,-2.31767,29.41436,0,0.4
2226,3eda2c75-56be-44c0-b8b3-dbfb521cc521,-1.68347,30.30397,0,0.0
2227,a8341739-211f-4ae6-b850-c3540ad912b3,-1.68864,30.40792,0,0.2857142857142857
2228,13cde380-4ad1-4e5a-a12e-ccc44e3a8bd4,-2.12736,29.68914,0,0.4
2229,e6000cc9-c05d-4713-a302-34f977d3707f,-1.50728,30.04192,0,0.0
2230,e9e4e802-f146-44fb-a737-d7261634cae4,-1.80389,30.29383,0,0.5
2231,f8fd4da4-b8bc-4973-b56d-e520f5936b6f,-2.33392,30.70206,0,0.5
2232,030e802a-85e3-4698-aca0-2d672eef2bde,-2.28581,29.25403,0,0.5
2233,75b88646-49aa-44c4-b637-ecfae2d68da8,-2.27481,29.24981,0,0.5555555555555556
2234,4edd5857-5ccb-485d-955f-81192bd8c844,-2.19044,29.57567,0,0.3333333333333333
2235,bfc666bc-8129-438c-af15-cfaeba6d933b,-2.48231,28.90478,0,0.4
2236,49d5fa73-b1ad-4adb-88a2-197e893c81b7,-1.81178,30.04061,0,0.4
2237,2f573c3b-352c-446b-8702-88fd0e10e39e,-2.42589,29.56464,0,0.25
2238,3a8d720c-302c-4e26-bf84-70ec76033889,-2.66403,29.68914,0,0.42857142857142855
2239,dc841a78-137c-48df-9475-a3a92f4fecd2,-2.38708,28.93292,0,0.5
2240,49c8d94b-db83-4fc0-baad-5a0e1268d9d5,-1.70119,29.66703,0,0.4444444444444444
2241,3224d488-f8c2-46ef-9c59-acbeca30c30a,-1.7725,29.93236,0,0.3333333333333333
2242,22bc4fc9-1acd-45b6-8bfd-8e055e1b2c87,-1.92217,29.67211,0,0.45454545454545453
2243,374f895b-3560-4472-9989-ed66d211d185,-2.04639,29.80122,0,0.7142857142857143
2244,b278a814-4839-4243-9215-a318851edb14,-1.94475,30.66803,0,0.0
2245,4e014c7d-eb83-4754-86fb-86db9fec60d1,-1.74933,29.87003,0,0.25
2246,4eb831dd-d205-4e55-a923-f628c0efea81,-2.69519,29.01131,0,0.18181818181818182
2247,40f013af-1a80-466d-95d4-b43476536d5a,-2.42811,28.92872,0,0.4
2248,db7d7bf0-20af-4f24-b6be-cd188e8523cf,-2.40617,29.60339,0,0.25
2249,7d70190a-f167-4a42-b4bd-3f6d74492368,-2.29275,30.11447,0,0.0
2250,9b8b0a1e-5780-4a57-a487-fb7903958a69,-1.72208,29.88425,0,0.16666666666666666
2251,51b91997-895e-44ff-bd06-73d2bf284b83,-1.39478,29.75778,0,0.4444444444444444
2252,faa62cf4-cade-4f72-a3cf-da7aac42a7fc,-1.60833,30.125,0,0.5
2253,4f604663-4320-4bed-8a5a-5bdecb3b8206,-1.81208,29.61644,0,0.7142857142857143
2254,c73a18b7-1a85-4066-90a2-c1338d6c5458,-2.26933,29.78728,0,0.625
2255,fc4327eb-3f82-4f7e-a821-daccb7ed38b2,-1.57347,29.78597,0,0.0
2256,c778daa1-fbbd-4fcd-9ae6-64216abd8f77,-2.47892,29.76814,0,0.5
2421,a4711a0f-4979-4a4c-b2ab-4f4a77755c2d,-1.47819,30.10767,0,0.5
2422,42e1b3ed-54e7-4071-9b94-637313bb6f6d,-2.01594,30.71333,0,0.0
2423,8adf03fe-762b-45c4-9fec-807994bccf41,-2.265,29.5595,0,0.3333333333333333
2424,54fe2a74-5bb8-488c-a302-e2a63043e3d2,-1.69978,29.34908,0,0.23076923076923078
2425,761c0733-1b94-4afb-b5b3-3c3823a33db8,-2.73253,29.8585,0,0.16666666666666666
2426,ee690830-eed0-4629-b6f2-80b4507e8989,-2.06861,29.46597,0,0.2
2427,7d70e11d-17bc-4f33-a1e9-608d05373eec,-1.547,29.71153,0,0.7857142857142857
2428,dd3f5d16-9d5a-40a5-b400-ddd8dfe2b265,-1.61075,30.22061,0,0.0
2429,652bc4b7-2603-402d-a198-c1aa852da6ad,-1.51086,29.70361,0,0.8
2430,1a3f4ebb-2e4d-4b9b-8407-0bad38b7b904,-2.23894,29.41808,0,0.0
2431,1935464f-420d-4d39-b93b-7d823ea11e25,-1.54258,30.24042,0,0.625
2432,733c6195-3ad6-4a11-9836-b171f05e5235,-1.99947,30.62111,0,0.6666666666666666
2433,10a1c684-f836-4334-bd96-209002b7f926,-1.65122,29.85744,0,0.16666666666666666
2446,f886ad51-5d06-48d3-b4c6-63ed3a81cb0b,-1.78489,29.88078,0,0.6
2447,11ea0d4b-bbc1-42d0-bb48-a62a23e1893b,-1.49419,29.63628,0,0.9024390243902439
2448,58ba646f-3063-4cef-a711-e90545b8290f,-2.08631,29.76161,0,0.75
2449,a0df9823-1a06-4969-b88e-143abe506f23,-1.71583,29.65378,0,0.25
2450,06e9cc7c-851f-419f-8105-9ebc9c31b0e0,-1.94447,30.1725,0,0.3684210526315789
2451,f9a940d4-496b-4938-a071-0eed9a4e72b5,-1.9793,30.037,0,0.725
2452,2bb97af7-792d-4064-a9c6-de85d60213f9,-1.96733,30.11761,0,0.453125
2453,c3ba25f0-5b1f-4c51-9e7b-de9b59366680,-1.61769,29.42292,0,0.09090909090909091
2454,c06e9be2-9ffc-4834-a3ef-37c6a72b8782,-1.93858,30.09086,0,0.6296296296296297
2455,a88eedbf-c6b3-42e9-ad6e-3c77aa871d07,-1.9535,30.04925,0,0.7301587301587301
2456,8c24c2cf-3b21-4ba8-b80b-90ee29c166ad,-1.99656,30.04858,0,0.6153846153846154
2457,3ad3de39-494d-45bf-a969-13f9360aa912,-2.10444,29.72889,0,0.6923076923076923
2458,1268b6b4-7e87-430d-ab32-cf2631ad014c,-1.96664,30.09503,0,0.4375
2459,e491d848-64dc-4e09-8ced-6d27421ddabd,-2.07097,29.73608,0,0.7575757575757576
2460,81d2bed5-e01c-4d71-8b3b-70e0318529d5,-2.30775,30.05336,0,0.7857142857142857
2461,e8e4e531-5c86-4128-9408-c99ebea8704e,-1.93144,30.04428,0,0.5294117647058824
2462,431e3373-0a2e-49a7-950d-76792e8e70ed,-1.67383,29.25572,0,0.4166666666666667
2463,88ec699e-430e-4dbc-849f-8090e357f1ac,-1.49414,29.62431,0,0.8888888888888888
2464,63a90481-59fd-4ff2-8f0a-413c99e2b925,-1.77533,29.84083,0,0.4
2465,aad8e2af-230b-4878-a57e-96eb1e53b4f5,-1.98719,30.08433,0,0.42857142857142855
2466,d9fb5bd3-0347-4605-af9f-896e81b43a6d,-1.98,30.08567,0,0.47761194029850745
2467,7389e2b5-4638-4c56-926e-dc1aa1160fc0,-1.92103,30.03389,0,0.375
2468,b876c5e3-d207-47bd-9147-e2c26a299ef8,-1.96,30.1297,0,0.44642857142857145
2469,b1421b9e-af35-4c87-b5de-db344740943a,-1.89856,30.12169,0,0.5555555555555556
2470,d05b5a16-7a7a-4013-8822-741f2a0e1f06,-1.57811,29.636,0,0.3333333333333333
2471,b423f6a5-15ce-4201-a108-8805652f2dde,-2.01014,30.0905,0,0.21052631578947367
2472,ec7fdb27-dca6-46c3-83c7-6880a770c6b6,-2.59056,29.73356,0,0.7142857142857143
2473,fd598434-485c-4371-ba6e-0127ca06e151,-1.98631,30.08861,0,0.39285714285714285
2474,29a3f262-7a6c-4d7b-9ec3-217db6b4f164,-1.98856,30.08892,0,0.37037037037037035
2475,d7beba53-04d4-4d27-9de3-8875804ad06e,-1.46394,30.30289,0,0.5
2476,a45b19d9-3a27-42f6-b823-a7ebd2e2037d,-1.96388,30.0259,0,0.6296296296296297
2477,cacee4e7-86ca-4084-8108-312652987352,-1.94067,30.04003,0,0.6153846153846154
2478,2e75101c-d1ab-4262-b696-b43f300c3fe6,-1.94514,30.08603,0,0.6166666666666667
2479,ca0a37e2-3b01-4f09-ae96-1f37cbf12b1b,-1.67419,29.28811,0,0.6111111111111112
2480,1c3a62c2-b8df-4948-9c60-e610cb137d93,-1.93139,30.04422,0,0.5294117647058824
2481,d455d009-40bc-4098-970f-1d4bcca7a3c5,-1.56222,29.55086,0,0.5555555555555556
2482,886809ae-6e23-483c-a401-8256a65f0b0e,-2.01062,30.104,0,0.3157894736842105
2483,30d44e92-227f-4b49-8f7b-51c4f8095179,-2.0156,30.022,0,0.6666666666666666
2484,d0b95c42-7a45-43e8-b804-c0dea7e37103,-2.08708,29.75703,0,0.7692307692307693
2485,62e1e5a9-503a-4004-9c18-36c49e57f12b,-1.97158,30.09292,0,0.4634146341463415
2486,4879cfad-08b6-4ede-91d1-0674a7c0379b,-2.52753,29.57529,0,0.3333333333333333
2487,58fc5dfb-e77a-4990-a778-8255c24ee5ae,-1.94631,30.08692,0,0.6101694915254238
2488,e10145f1-3b9e-4005-8c6d-f9b51aea9215,-1.99158,30.11181,0,0.4
2489,cf688302-937f-4b03-8178-0994a81cc0d7,-1.99197,30.10325,0,0.39215686274509803
2490,f9835afc-f639-409b-b89b-3ccb48679e2d,-2.07592,29.74567,0,0.7804878048780488
2491,a2be15bb-7340-45bf-b8c2-6652323fd341,-1.45425,29.51256,0,0.6666666666666666
2492,e0bd9f6b-38bc-4a3a-93c3-3b30bc392826,-1.9647,30.0181,0,0.6842105263157895
2493,c523f89a-1165-4d31-b0c2-ad2783db1c60,-1.54992,29.556,0,0.7
2494,6aad4a86-8558-44fa-b7a1-969742fac3e7,-1.9697,30.015,0,0.631578947368421
2495,dba50ffb-597e-41bb-8390-60acf9c836e6,-1.50642,29.67125,0,0.8461538461538461
2496,8fa732bb-19c4-4992-94da-55c84b8bd0a5,-2.08306,29.73944,0,0.7777777777777778
2497,42da8b9b-a9b2-4a6d-99ef-0d4f3537c281,-1.94,30.08,0,0.6507936507936508
2604,e40b0474-c64d-4cce-9e85-5d85a1aecde0,-1.68764,29.98042,0,0.4
2605,e7636f61-d91a-483a-be27-52609c7b64db,-2.27258,29.40356,0,0.0
2606,494f2ca8-bb9b-483f-bfe1-b6516bd2244f,-2.08894,30.08833,0,0.375
2607,47c87022-1349-493b-87f6-c70ca3e02cca,-1.67864,29.56675,0,0.2222222222222222
2608,62380e58-5f7d-4e5a-8290-57906eb072d2,-2.4445,29.70614,0,0.5
2609,c2decda0-b7e8-429a-96f5-614705eb49b4,-2.22492,30.21753,0,0.6
2610,2d0666e5-ca4b-4a48-b916-c367e1e3ffd5,-2.61378,28.93828,0,0.14285714285714285
2611,90287458-ddce-4068-879e-e009ac6ea0e0,-2.41981,29.6485,0,0.4
2612,3865389f-6b40-4bed-aeeb-c85c778cbeac,-2.31006,29.04417,0,0.2
2613,380d2601-2ca9-42da-97be-453a8ab2d149,-1.75864,29.52275,0,0.3333333333333333
2614,d7808c7f-fa33-4ca0-8693-40d499cccab4,-1.72828,30.41078,0,0.3333333333333333
2615,69d6a81c-dc06-4c19-8bb9-543336a908e6,-1.93833,29.55128,0,0.3333333333333333
2616,797d4166-3468-4822-8a9e-a5bf9f717f21,-1.94147,30.03539,0,0.5161290322580645
2617,9ce75c19-e312-49b0-bde9-774717e0e381,-1.71289,30.41086,0,0.14285714285714285
2618,9686a8d5-a30d-4d76-80ad-9a88e51dd549,-1.62714,29.61528,0,0.4
2619,83a863ce-2288-420a-838c-54ef968bafdc,-2.20419,30.14764,0,0.4
2620,0b3c6bbe-ab65-4277-b91e-a7191495390b,-2.11589,29.34086,0,0.25
2621,83a80b04-ae88-4c4b-8cb2-7ddeaa676829,-1.68553,29.7385,0,0.3333333333333333
2622,03edb293-1ffe-4f60-83e1-a3ccf0b45e8c,-1.48531,29.83214,0,0.1
2623,ed81d27c-3e39-4b0f-8a3b-cf40604d835f,-1.59986,29.32903,0,0.625
2624,d64381dc-3caa-4ca4-a7fa-32aafe93393c,-1.61775,30.38164,0,0.5454545454545454
2625,2d9ed413-b3a2-4939-b6bb-e4b84980e02f,-1.69539,29.25528,0,0.4166666666666667
2626,f03903f1-a38f-4d80-a75a-fe41ab81821f,-2.07283,29.78208,0,0.7058823529411765
2627,ae8ed73f-4333-4eef-a929-aaf28befb3c8,-1.80156,29.89494,0,0.3333333333333333
2628,76c01f87-30bb-47c0-a219-9104b1d39eda,-1.96978,30.12297,0,0.4117647058823529
2629,64f93c61-3313-437e-9801-32297966091b,-1.71981,29.39811,0,0.2
2630,f2021715-f66e-452c-9c90-bc70a0ac5b81,-2.23069,29.48081,0,0.2
2631,97f5df38-fb12-41fa-b374-71b079c36537,-1.62108,29.80228,0,0.5714285714285714
2632,9b70a229-9e3f-486a-ace4-2305bf53aea6,-1.99856,29.35031,0,0.3333333333333333
2633,90bcdcb8-0db0-4e70-b862-2066f84da0b0,-1.86375,29.38142,0,0.0
2634,cfc81921-dcd5-42f8-8014-bcd425b13554,-1.42064,29.74631,0,0.5
2635,19890126-51cc-4077-af0e-4993ab4be7a2,-1.58361,29.82644,0,0.5
2636,7f9aa0c3-d8a3-4671-8c96-9302f2de4207,-2.20969,29.44186,0,0.0
2637,6ce20b48-83c9-4c17-86cc-f89c4db9f992,-1.61608,30.38153,0,0.5454545454545454
2638,0908e43c-eb68-4122-909b-4046b59bcb95,-1.72356,29.83611,0,0.2222222222222222
2639,da6c0b43-8be3-4099-be6f-3af71432cd66,-1.62792,29.92692,0,0.2857142857142857
2640,28eb729d-47f9-452e-9f1a-4cc047595805,-1.88114,29.47914,0,0.4
2641,6402a899-f4bd-4cec-ae66-3bfe71029aa7,-1.66606,29.48014,0,0.2
2642,f3008394-d2fb-4eb3-8b02-9c7464c4b313,-1.83911,30.41322,0,0.25
2643,3b73f305-ce25-48d5-9fa8-24fa5c305e36,-1.45003,29.67942,0,0.5
2644,94d1e6a7-4b94-45fe-93d1-88e0402f0bfa,-1.75706,29.65922,0,0.625
2645,171f7a71-ee5d-4d8b-ba85-3c5e54cfe033,-1.66867,29.59017,0,0.2857142857142857
2646,aab438d4-a53b-4e12-8c1b-80b203053161,-2.46014,29.02817,0,0.5
2647,6d23b2ce-ebd7-4815-866f-5ee49a2ddf8d,-1.362,29.87906,0,0.0
2648,1b4c44ff-5028-4b41-8234-1f3a7bea24b8,-1.70875,30.40192,0,0.0
2649,e8af8a77-f760-4a35-b1f7-cddb0d890e96,-1.742,29.73917,0,0.42857142857142855
2650,0cf6a5dc-dfdb-4c78-85e6-e6b2b1a7343c,-1.95508,29.62928,0,0.4
2651,197199af-a2f1-442f-aeb9-79d5797d1710,-1.67656,29.84186,0,0.0
2652,a4103c0b-e183-445e-96fc-4dc5283b3698,-1.68136,29.46775,0,0.2
2653,d8020acf-41dd-414c-b4ff-798edfd1bd58,-2.04319,29.55211,0,0.2857142857142857
2654,23397adc-ae6c-42c0-90cb-736e8787af07,-2.66433,29.89756,0,0.5
2655,aecef5c5-9714-4027-bc00-8c75b82cbdb7,-1.92606,29.56414,0,0.3333333333333333
2656,9c20bf19-303d-4b06-9da8-dfde24dfa116,-1.47608,29.96853,0,0.25
2657,846fbbd2-dabc-4905-930b-c7dc1b6c442b,-1.34266,30.21755,0,0.5
2658,4b034cfd-bcd8-4267-826f-4203584366a7,-1.83392,30.04358,0,0.625
2659,abd77f46-ec9d-4e29-b712-8da67c6bb954,-1.68439,29.25997,0,0.42857142857142855
2660,94e2791f-6f3d-4ead-86ec-e68d6f76f047,-1.66475,30.26797,0,0.5
2661,0950d1e0-8e27-47a9-8ea5-360dc7f7acde,-1.85969,30.22392,0,0.25
2662,19f8f657-4fec-4369-83a4-7de4828f4ad5,-2.24308,29.817,0,0.2857142857142857
2663,69332472-5e27-418d-a79c-fe9b901d8fa4,-1.38531,29.84703,0,0.3333333333333333
2664,874c5c0a-10a4-4f94-a577-8f2502ef7943,-1.74383,29.88142,0,0.2857142857142857
2665,3806e930-7263-49b8-a58b-9240663c394f,-2.45628,29.47492,0,0.25
2666,76efba20-30c7-470f-96f6-2e4fd3c23bf6,-2.22833,30.22861,0,0.42857142857142855
2667,b0eb07c1-82a1-4dc9-b969-c77d9a16ba39,-2.374,30.11269,0,0.6666666666666666
2668,135b8986-964b-488e-b5f0-096ebd7efcf4,-2.03661,29.4505,0,0.3333333333333333
2669,8b094204-3af1-4742-9923-ac603b486a6e,-1.97436,30.13817,0,0.34146341463414637
2670,4ffe3f43-1b50-4da8-b39f-aa637db9cabe,-1.97358,30.21758,0,0.5
2671,597f0d99-708b-4eb9-ba47-8a057dfe0882,-1.82019,29.90908,0,0.5
2672,67f8304f-5796-4bad-8a16-063c935059b5,-1.79717,30.39608,0,0.4444444444444444
2673,d02efb83-a771-4bf0-970a-f3cdf6988230,-2.42733,28.9165,0,0.375
2674,4b4e60c9-cc4c-4cfe-96bb-90a50a63ae0c,-1.68728,29.24869,0,0.42424242424242425
2675,b21fd6a9-e195-40d2-896e-2b4c412d9f76,-2.40789,29.15286,0,0.8333333333333334
2676,3c5567ac-1373-4c48-9c2e-c21379c782ad,-1.53933,30.20661,0,0.6666666666666666
2677,c7ad0896-734a-4c61-b3a6-a7e37ce50f37,-2.58156,29.84717,0,0.3333333333333333
2678,c3364b1d-acaa-4f3c-91a9-46fe4d3eeb16,-1.65606,29.25883,0,0.46153846153846156
2679,7ace37eb-ea3a-4a72-8b28-9eeb57fc832f,-1.76267,29.64764,0,0.5
2680,8c7408e6-8805-4b4a-bdde-5df0144ef488,-2.40747,28.93828,0,0.5555555555555556
2681,ce724a75-51b8-4a3a-bb4c-5b2cd44e22c6,-1.65178,29.359,0,0.375
2682,8f6a3cb1-f616-447f-893d-7f252cfd5969,-1.45544,29.82192,0,0.3333333333333333
2683,2e59183e-75f2-4167-9cb1-db5e95e1c359,-1.9894,30.011,0,0.5555555555555556
2684,7f5cf4f2-bb2b-479e-9947-cc0d4850c00c,-2.0125,30.69411,0,0.0
2685,2817a3f2-0baa-447a-8f49-3019ece107c3,-2.30908,30.557,0,0.4
2686,265c337c-5a8a-41bc-9891-8c5447123fe9,-2.24272,30.24425,0,0.7142857142857143
2687,e2e53798-2df7-49ab-9202-c09f3d51d95b,-1.75078,30.01822,0,0.5
2688,529c332b-4c2e-45a9-9f46-8971346833f0,-2.24997,29.2955,0,0.6666666666666666
2689,a42ba53c-3106-4e8f-8e3a-d925c49922fa,-2.17919,29.48267,0,0.14285714285714285
2690,d2465588-5a3c-4646-91f7-860404314b95,-1.94417,30.17283,0,0.3888888888888889
2691,580faa35-1aa4-42d9-ae4d-3589c6323e3f,-2.25936,29.50389,0,0.0
2692,4491648e-6836-48ca-b32e-f67010c8d4b6,-1.55586,30.32244,0,0.5
2693,91e97c40-4d74-4f88-a5be-f6a4db0ff7d2,-2.21675,29.92636,0,0.2
2694,30b1de40-790b-47fe-b1df-502f47b3bf37,-1.91064,29.65567,0,0.375
2695,6553b6a7-40be-4a4c-9101-382506bc5d01,-2.31172,29.45372,0,0.25
2696,0fc78eb3-4815-455b-89d9-337f244956c9,-1.72697,29.55292,0,0.45454545454545453
2697,e4b50d69-2e8e-4994-a37d-efc1e6c9bb2d,-2.21969,30.18717,0,0.0
2698,23dbd2d3-2314-4870-962c-baace285fca2,-1.97881,30.17817,0,0.45
2699,24aea182-1eab-4dc4-b73f-b7e67767e7cc,-1.59911,29.66892,0,0.6666666666666666
2700,4ec16503-2d57-4420-95c6-81add544a0da,-2.38972,29.12078,0,0.5
2701,0cbd9026-3452-400c-8fe7-3fd6adf35779,-1.70058,29.59892,0,0.2857142857142857
2702,d801f3c6-d26b-42e6-b44d-a85f150d3d90,-1.41683,29.71725,0,0.2727272727272727
2703,aac4180f-9c06-4f8e-8e7d-dedd07a4d9b3,-2.59019,28.988,0,0.14285714285714285
2704,77dca926-d14d-49ed-8aa9-af3663bd1d50,-2.20722,30.23875,0,0.5
2705,fb5df158-b9d8-4f9e-a4fd-c83236723d6f,-1.67039,29.70597,0,0.2857142857142857
2706,5126d2af-dfc4-464e-b2ea-bebbd8bf212c,-1.90592,30.50794,0,0.6153846153846154
2707,b0cfca56-5e2b-4b4b-99d6-9499b452cc02,-2.57764,29.76953,0,0.5833333333333334
2708,4958d709-a33d-4a69-a169-8d99e181cada,-2.16981,29.39106,0,0.625
2709,6c5e45da-828e-4ebf-a705-6bf0000d20c3,-2.51339,28.94103,0,0.6
2710,d185b825-c975-4139-a820-dc34a1695912,-1.19456,30.36453,0,0.0
2711,f1701559-e2c0-46bd-91dc-61261a87b394,-2.60206,28.98139,0,0.14285714285714285
2712,445215fe-394c-4e5d-8943-a44c0bb4ab18,-2.21375,30.01514,0,0.0
2713,ce3802ca-482b-44c6-8a7c-a811188100a2,-1.66544,29.85089,0,0.14285714285714285
2714,9bf655c4-0bde-4d86-bc9f-b89639cdc33f,-2.2915,29.22386,0,0.5
2715,33b17d97-85a4-4c79-b26e-343366744af4,-2.11203,29.42114,0,0.14285714285714285
2716,fd1aa2d6-f23b-4fed-a447-cba9d60cdb26,-2.2356,30.2985,0,0.0
2717,8be0cae9-7bad-46f5-8393-a48bdacca002,-1.61208,29.57819,0,0.4
2718,23081b64-9595-44d2-8fa3-8cbd6d2d57a4,-1.82,30.45,0,0.25
2719,fd1499a1-03ed-4d5e-bc1c-64aa480b722c,-1.439,29.67203,0,0.5
2720,bc5d6445-a571-4b52-a4ac-67e8318193fe,-1.80261,29.72714,0,0.7
2721,9e11fd3b-f70d-451b-879c-7df59f21f92a,-1.64894,30.52944,0,0.6666666666666666
2722,f0883071-b437-473d-8f68-39e7e6f8364d,-2.30383,29.02764,0,0.0
2723,c3d893f5-da8c-4af6-9fad-506de8608bf0,-2.20353,30.14308,0,0.5
2724,3a56ea85-2028-4005-be7b-7ba06195b677,-1.75122,30.20831,0,0.8571428571428571
2725,fcdde89c-affd-488e-b196-2ae58eed94e0,-1.93594,29.63931,0,0.42857142857142855
2726,cc1e4122-220a-48b8-94c7-135772e1b5a5,-1.66397,29.59844,0,0.3333333333333333
2727,31fefe6b-e1cf-4379-9438-e349e4918bea,-2.15106,30.05381,0,0.0
2728,f0f99663-1cf0-4abe-a0d3-d8215fb9ebdd,-2.60097,28.96522,0,0.16666666666666666
2729,8341d565-ead9-4e90-a19e-345bd3338182,-2.12378,29.48847,0,0.6
2730,a4b572cf-bc0e-47ec-9767-25b3ff62e1ec,-1.66836,29.44522,0,0.0
2731,dd70dbd8-5a24-4c13-a0b9-b8187b62c616,-1.67361,30.37944,0,0.5
2732,e0213c46-e921-48cb-a192-d06c795a1f12,-1.91997,29.61111,0,0.4
2733,9da92ca0-76aa-4bd2-a06c-5a0cff66daa3,-2.10103,30.62211,0,0.5
2734,ef6d7aee-1627-4187-b6ff-eae6a14f7f09,-1.81897,29.84947,0,0.3333333333333333
2735,ed532353-dde5-458a-9068-9462119ac9e0,-1.99608,29.48275,0,0.2
2736,535b3e0b-7eb6-40ce-aa44-7e35c91c70f9,-2.12525,30.25039,0,0.0
2737,9dda655c-ff77-4337-8abc-a11ac13b4e89,-2.08008,29.77575,0,0.7692307692307693
2738,c70e2beb-01a5-4c9b-8844-c94040a772e3,-2.04856,29.92486,0,0.75
2739,10993ab6-4cbe-43ee-a328-ab90d8962dcb,-1.69492,29.54394,0,0.625
2740,c89ef037-b8f3-4ec3-8776-18d9c0f1db67,-2.10283,30.67025,0,0.6666666666666666
2741,801bb899-369b-4b9d-96a3-14b2e2f7153b,-1.96139,30.18789,0,0.4090909090909091
2742,29e470be-a492-4306-9523-7b445cb66107,-1.87222,29.49836,0,0.2
2743,80872998-e739-4aba-9331-8d1b0e0fbc70,-1.46975,29.76886,0,0.3333333333333333
2744,6489cfa8-cd9d-471e-a5f0-c2d4c3269c45,-2.07283,29.65925,0,0.7777777777777778
2745,3216aa41-7280-4afd-8553-c575cb51afc9,-2.15536,29.78819,0,0.2
2746,3fdc8a2a-73d2-4c64-a896-a84afcea6cb0,-2.24586,29.61978,0,0.4
2747,cffbf878-86b7-4b50-85e5-a365d5665a83,-1.66892,29.92267,0,0.2
2748,42a565d3-b846-4bd1-a2db-82df465093dd,-2.28789,29.20025,0,0.5555555555555556
2749,8fdccf8e-5360-4e3b-a1df-903614181967,-2.15658,30.22322,0,0.6
2750,3c7b33dc-e4f6-448f-bb27-828cb2e91a89,-2.36875,29.16606,0,0.8571428571428571
2751,029b94b8-ed11-4825-a0d8-155641a29a8c,-2.24536,29.47428,0,0.0
2752,80e57584-2e88-4173-a6a1-a17cab6c258a,-1.62264,29.81917,0,0.16666666666666666
2753,3801bbc8-d0b7-45f0-a316-4bdaf98e1da9,-1.576,29.427,0,0.0
2754,fb64fda1-49f7-4298-ab54-2f67a02f2402,-2.48306,29.85496,0,0.3333333333333333
2755,fdaa21ea-4b1f-4909-b169-c3a6b5a49aa7,-2.57414,29.05956,0,0.5
2756,9cd8ddfa-cc2b-408c-8d90-6def6cac325b,-2.07397,29.78064,0,0.7619047619047619
2757,b9c14309-f75b-4ceb-a0cb-60344a8f4aed,-1.98264,30.08983,0,0.4461538461538462
2758,80c2f21c-fa58-4566-b426-416c67679bb8,-2.28442,29.23147,0,0.375
2759,0906fe7d-dbdd-4c18-9586-36221c57c6c2,-1.62894,29.48478,0,0.125
2760,8dde4f01-23b2-4daf-8172-b696c738ad5c,-1.85533,30.37767,0,0.5
2761,c219682c-1dad-4aae-81ee-22126b786912,-2.36297,29.21614,0,0.6666666666666666
2762,95b55625-01c6-40fb-810f-9f32e54d88c8,-2.23467,29.27031,0,0.4
2763,003f50d0-2d8f-4dea-98be-c71a7f4a7d33,-2.13492,30.55981,0,0.9230769230769231
2764,51527b33-3eb1-4dbf-a29f-dc8eedfc4cd8,-2.62133,29.89947,0,0.4
2765,651643e2-c2fe-4ac9-abe0-1438c1930287,-1.89911,30.08439,0,0.5555555555555556
2766,4c94929e-98f1-4496-99cd-4ddd82ea0ad7,-1.54883,30.24633,0,0.5
2767,82e29b3c-70a6-4da0-b01e-bc8aaa21980f,-1.72761,29.99586,0,0.0
2768,e3c22128-ac1a-4639-847f-0bebf2a1cccb,-1.66292,29.81689,0,0.16666666666666666
2769,05fa1359-355a-40dd-b4d5-34ab35095577,-1.8665,30.17233,0,0.5
2770,41b3e863-9b36-4980-beb5-dcc4000f92fd,-1.83831,29.65953,0,0.5454545454545454
2771,1c3f4589-0b31-4816-82a8-81f5f6e4559a,-2.39522,29.42536,0,0.5
2772,109528b3-b1dc-4013-8d7f-0a9f5472a7fe,-2.52033,28.99547,0,0.5714285714285714
2773,261040ca-cba6-47b4-8cbe-c9b59885a6d8,-2.26683,29.19964,0,0.625
2774,df1589ef-6a2a-47c5-b63f-3245553ff5f2,-1.96,30.13531,0,0.4222222222222222
2775,aca06dc3-1345-44da-a73b-969871740880,-2.44942,29.43981,0,0.42857142857142855
2776,e952a0e7-6c51-4dbb-a56e-24b35ea03f2a,-1.84,29.56522,0,0.3333333333333333
2777,f187f51b-f407-481b-831c-fade7e9a72b2,-1.65622,29.72725,0,0.2222222222222222
2778,22f4fa90-f0ef-4b7e-8fdd-af38b34f40d0,-2.55847,29.47306,0,0.8
2779,7ecf0f7c-c8d2-4df4-940d-c051355de717,-2.14381,30.08664,0,0.5714285714285714
2780,67780c05-f6d8-4755-9ec4-e0fcbbd206a6,-1.95267,30.07767,0,0.6625
2781,21c7a4d5-3f88-443c-9b6a-711c956065d4,-2.13208,29.67283,0,0.4
2782,aad5be3c-d54c-4e74-ade0-4616b6658d75,-2.06,30.033,0,0.5
2783,366201d6-54d9-4a9d-b824-361c5145e612,-1.83083,29.745,0,0.6666666666666666
2784,af93099e-f7da-4de8-901d-bdb0fcaeb5b6,-2.41983,29.51489,0,0.5
2785,33356432-94bc-4fe0-b86a-b573352429df,-2.16542,29.46011,0,0.2
2786,59eb0c7e-6faf-406b-9662-3274ddabf748,-1.96614,30.11561,0,0.47058823529411764
2787,c55a065d-3dc0-4e94-909a-3c8faf14dfd9,-2.52178,28.87108,0,0.4
2788,5f921e74-d276-4392-a2c9-5914c76608dd,-1.55733,29.86197,0,0.3333333333333333
2789,caeb75ed-3354-4df6-9f67-6c2c2e12867f,-1.85842,29.40803,0,0.25
2790,d41772e5-3f5c-4bd9-bd7a-a522f2032312,-1.41844,29.83808,0,0.3
2791,4ba0ab77-7f6f-413b-af81-2a2335b40c08,-2.31689,29.02858,0,0.16666666666666666
2792,316d5742-85e3-4500-95e5-f4f43f05b77f,-2.22133,29.53794,0,0.6
2793,5cf255c0-53ae-46da-b547-760d87341578,-1.78394,29.52403,0,0.16666666666666666
2794,72dca3b3-09d2-451b-88bf-a4e51fc04fea,-1.86333,29.65858,0,0.5555555555555556
2795,043ddf13-0484-4302-8860-74d212c93111,-1.89306,29.65669,0,0.5
2796,5b7d1e86-0c30-40dd-a990-5404a48fc9f5,-1.59492,29.75036,0,0.6666666666666666
2797,f112eafd-89f9-4000-b30b-7a9e309dd47e,-2.23542,29.43589,0,0.0
2798,e8d90df7-5cc2-42c6-bfaf-ff5ab2492327,-1.55097,29.98672,0,0.6666666666666666
2799,9082ae91-9bea-46ca-bfab-7f7325fe6858,-2.03331,29.76906,0,0.5714285714285714
2800,2787eaed-fa88-4b20-833e-90d931930764,-2.59294,29.7505,0,0.696969696969697
2801,b2db2fb0-6716-4b27-9e59-32e4ae75cc83,-2.73486,29.82283,0,0.0
2802,a314e047-c53c-4351-93eb-c1da351a3017,-2.34003,29.56294,0,0.25
2803,b04e6744-a645-45d8-9172-3843f2404ec6,-1.74725,29.32047,0,0.16666666666666666
2804,8f281727-3b8b-44dc-b2f4-a373d248a5eb,-1.92278,29.68022,0,0.5
2805,2cd5e92a-8e9e-4a39-a4ce-01967fef5e89,-2.10253,29.43544,0,0.3
2806,dbfe66c4-8454-4290-a526-c8073d9c3484,-1.47622,29.84686,0,0.25
2807,188c28d9-8688-49a3-af87-b260476e0b6f,-2.17061,29.87353,0,0.75
2808,7c43c34c-c158-49b4-b366-ebb60e1fb562,-2.57336,29.04692,0,0.5454545454545454
2809,081bbe66-d819-486b-beb0-a4f9493112ad,-1.96211,29.37208,0,0.5
2810,9a6970b6-b8cd-4240-a6a8-c1dbc62a077e,-2.64075,29.64681,0,0.4
2811,771da6b7-c99c-4e98-9626-7bc409d1fb03,-1.72719,29.52994,0,0.42857142857142855
2812,34b4a1b7-844f-4229-bd0a-ab6ef15a9f92,-2.65303,28.90897,0,0.5
2813,7ed74bca-6305-4ae4-899e-f28e190df2d0,-1.52972,29.88194,0,0.0
2814,430f404a-2d2d-4bfc-89f4-9042cf0d4d38,-2.59322,29.71731,0,0.7222222222222222
2815,0645c7fc-124e-48eb-97e5-028499d50502,-1.79781,29.74922,0,0.5555555555555556
2816,1f553ec0-8c6d-4f47-8af7-fb807ca1c60c,-1.65511,29.83811,0,0.2
2817,2fc4401a-1a49-4419-acc3-2e6c473d916b,-2.23714,29.78178,0,0.5
2818,048b2d30-228e-43fa-a1c3-b9d1d61ac65f,-1.69225,30.20469,0,0.75
2819,e0c04566-5b81-456a-b07a-aec3615b2a53,-2.42181,29.20614,0,0.5
2820,ad275bbf-99b0-4f63-b7d5-319355e32cc9,-2.64892,29.60864,0,0.7142857142857143
2821,4fe35255-1555-48b9-ac6d-479557043be2,-2.29494,29.60256,0,0.4
2822,44d41821-a588-4bb8-a4b7-85ac1cb2d97b,-2.23806,30.51808,0,0.3333333333333333
2823,b4423894-1e94-4534-92f5-2011a295a23f,-1.72142,29.68025,0,0.2
2824,58b9c053-08a2-40ac-ad8e-44831895a021,-2.19828,29.88344,0,0.6666666666666666
2825,79d102d8-ab42-45a9-8320-c351cca2c1c0,-1.69758,29.92097,0,0.6666666666666666
2826,94ff693d-3e7d-42be-bf35-d760dbc5a222,-2.00622,29.71269,0,0.625
2827,def8d7a0-1f6b-4046-9c82-435962b2f4d7,-1.78411,29.50261,0,0.4
2828,d3f36375-ac56-40a1-8fa8-c7b6942735fc,-1.97167,30.22597,0,0.5
2829,f28d42f0-d37b-4087-a909-5b14f95f69dc,-2.25417,29.42719,0,0.0
2830,780a468a-ec2a-467f-9856-6982f9d7eb61,-1.63669,29.78681,0,0.5
2831,bc2c0fd9-9bcd-4d2c-a371-20856808ea57,-2.23797,29.36944,0,0.2857142857142857
2832,642d85b6-3c3d-40dd-865f-68398cc34830,-2.53906,28.88725,0,0.7142857142857143
2833,f824ae97-7853-4f1d-95d7-bf2239593cb0,-1.73639,29.80767,0,0.25
2834,1b2c4b88-1a3e-44ee-a52d-2c657bfb5904,-2.48706,28.92019,0,0.45
2835,068690c3-13c8-44c5-ba90-2a150b23d59e,-1.56647,29.83931,0,0.5
2836,7f742915-b0ef-4357-add6-2ff5914d4db5,-2.52211,29.47275,0,0.5555555555555556
2837,2a392393-9717-4b27-95df-257661d353a7,-1.80486,29.52322,0,0.0
2838,c4dcf8bb-2354-4a3a-88b7-44ed5cefd3ea,-1.70994,29.71686,0,0.4
2839,0f4e71ee-80f7-4a4c-9b82-18aace8b5392,-1.87797,29.75547,0,0.7
2840,960e2b95-b537-417a-b043-31859086a25c,-1.89478,30.4895,0,0.6
2841,c663398d-a2d7-4dfb-b167-4d5409a94993,-2.23422,29.82508,0,0.4
2842,4a6da4f3-77e6-46df-b819-398149531562,-1.96614,30.15664,0,0.3333333333333333
2843,b581de54-992b-4521-a3fa-455d2a70fc33,-1.92567,30.07922,0,0.5952380952380952
2844,65b94671-8105-4a11-a3ec-b681baff1471,-1.81711,29.86414,0,0.375
2845,4b4a103d-ea8a-4594-b6b0-388069bf26e7,-2.03344,30.19003,0,0.3333333333333333
2846,639744ca-8aa9-4189-9c87-93869566af28,-2.15575,30.00858,0,0.75
2847,d2681d26-9986-427b-85ec-90907570d507,-2.37653,29.53658,0,0.0
2848,342e5a5f-f3d9-4b2c-888b-4be5821192f3,-1.75592,30.28544,0,0.5454545454545454
2849,9383a39e-50fa-4880-9d99-f2096cbdeb3e,-2.48025,29.50269,0,0.42857142857142855
2850,3ebbb372-ebe2-43a7-8402-ede70fbe7023,-1.79964,29.76306,0,0.5714285714285714
2851,fa42bcf8-6629-4eec-abb2-695fc5493ae2,-1.70464,29.56961,0,0.4
2852,afb63e4e-55e6-4ea1-8b30-8a7a4adbb42f,-1.50258,29.85636,0,0.16666666666666666
2853,63c44489-a67a-446d-8fc5-d9305c03e563,-1.58122,29.774,0,0.0
2854,499b2f82-db68-4e2d-bb3d-acbc57d0cade,-2.35744,29.49078,0,0.5
2855,3215e335-b32b-4190-92b7-df64d9e6c477,-1.7295,29.32897,0,0.3333333333333333
2856,408a5f58-0636-4f3e-8522-332f05ed62ac,-1.77622,29.71217,0,0.6
2857,acac5f15-a08e-4760-bec6-50063b62c991,-1.62189,29.38008,0,0.5
2858,afb939d7-bf99-42b0-89ee-b6ae5e0b3f88,-2.09397,30.22325,0,0.0
2859,4cfac8b0-1412-4c0c-8e06-05f3be0a9e84,-1.93247,30.13458,0,0.56
2860,d1b3aadf-8394-457a-be85-16f6635a30a6,-1.97672,30.11228,0,0.42424242424242425
2861,97313707-f036-49d2-82d9-ca184463c559,-1.41853,29.82994,0,0.36363636363636365
2862,93273c13-6d31-4ee6-9f07-3024d8735130,-2.78367,29.74653,0,0.5
2863,310df8b3-83b3-47a3-ae91-b519ba9e460a,-1.97767,29.46286,0,0.0
2864,97697619-3f5e-4ce0-80d7-bfcf2dfcdd5d,-2.36189,30.08331,0,0.6
2865,c3a10e43-1c85-49d4-b979-dedbd141af10,-1.51256,29.96956,0,0.36363636363636365
2866,517d3581-ecbb-4397-94eb-c1171ff2849b,-1.62242,29.96786,0,0.42857142857142855
2867,8a00aee4-30ab-454f-9b11-216f1e423316,-1.822,29.68164,0,0.5454545454545454
2868,c878250d-7e89-4791-932e-53c61ae905a9,-2.32569,29.02217,0,0.25
2869,5d44768b-7d9b-4f2e-9e0a-4406593af970,-1.49567,30.14317,0,0.5
2870,9942fe9a-d126-4036-ac2a-157a73fb5afd,-1.91119,29.54,0,0.25
2871,e3d803ba-7d6e-4b8c-b005-eebe7f531685,-2.51647,29.85483,0,0.0
2872,67e8ccc0-9037-4428-a334-56f614cb335c,-1.74856,29.81983,0,0.2
2873,4f9eca0b-0508-4514-9534-54293fa34bc8,-2.26858,29.88903,0,0.4
2874,15d0c04a-5b3d-4253-ac71-bcbfb6ffbb5e,-2.02925,30.55828,0,0.375
2875,c3dc689d-7c86-428a-a5b0-a787f662b8fd,-2.51061,29.55428,0,0.14285714285714285
2876,18b38092-2f4b-4772-a446-5ef9805299c3,-2.62261,29.23381,0,0.3333333333333333
2877,cf4f0173-8c77-44b5-a7ba-08299b152cfe,-2.48581,29.52583,0,0.75
2878,fbd63fe1-590d-4bc3-aa5b-dba5b92855d7,-2.21717,29.26622,0,0.625
2879,834d2639-e01a-4d85-a51f-357022973771,-1.63133,29.34017,0,0.42857142857142855
2880,9f0a73c0-7106-4e7e-b935-7f8738a1d973,-1.69875,29.37531,0,0.09090909090909091
2881,3dbe647a-a59c-4867-a4ec-fddb703eabde,-2.07283,29.50311,0,0.0
2882,f13a65ec-ba06-4e84-8bf0-8c694a2b0160,-1.90111,30.02247,0,0.3333333333333333
2883,3746d0c0-4a5c-40df-b6ae-f1ec66335027,-1.6355,29.553,0,0.3333333333333333
2884,1d0598c8-388e-4ccc-a311-c141ecf24261,-1.57347,29.78597,0,0.0
2885,abd1e037-a1f6-4c7c-8e8f-fd0c44805612,-1.64994,29.48842,0,0.42857142857142855
2886,e65b907e-e19c-4a4d-98b6-87646011c14c,-1.85631,29.44869,0,0.3333333333333333
2887,dda96449-0769-4b43-b884-8de2e4ea2a00,-2.73258,29.85558,0,0.16666666666666666
2888,f2378c80-e8ab-4a06-9cad-afa9fada9587,-2.66956,29.81119,0,0.25
2889,c14de662-857d-4ddf-8820-a56fe0502107,-2.52136,29.59728,0,0.45454545454545453
2890,d8d5568c-961f-4d15-919b-33816bfc56cc,-2.07767,29.49689,0,0.25
2891,c3f757c3-f64f-43c5-902e-680fad4f87e1,-1.63525,30.26733,0,0.0
2892,6e35f079-948c-428d-b5d0-92352323c4c8,-2.16992,29.30547,0,0.3333333333333333
2893,ebf60a77-0949-418f-8035-108a0f93179b,-1.75786,29.76103,0,0.4
2894,f471f9c1-b67b-4e03-b08b-3c244ed991d5,-1.64881,29.51917,0,0.4
2895,1029eb90-b784-4ba3-a14a-3972a9ccb7d9,-2.26269,29.37222,0,0.3333333333333333
2896,56c05c74-1bbc-420e-8ee6-7ba39f03c517,-2.11758,29.69975,0,0.5
2897,46dfbbc3-adab-4959-ac0f-c661d04223af,-1.69775,29.58467,0,0.2222222222222222
2898,46c2c28d-474e-4744-bf5b-5682d0c5e0f2,-2.19242,29.49786,0,0.2
2899,0f9b6495-2dec-47b2-93d4-5951fc438de8,-2.238,29.33281,0,0.2857142857142857
2900,78bcdf46-62c0-470d-a7e8-a48006f67427,-2.14933,29.36089,0,0.25
2901,651e741a-fdaa-47ad-b007-b58290795e04,-2.15667,29.57967,0,0.5
2902,9f2c6003-fb55-4580-bee6-738ebccd3274,-1.58389,29.72472,0,0.7142857142857143
2903,3bb052c4-d5c1-4217-9111-a55c3b399c73,-1.72294,29.62578,0,0.2857142857142857
2904,66cb9039-0a22-4e3a-a8ee-0c4a91553bac,-1.71211,29.53308,0,0.5
2905,049612ca-0812-4826-b07e-ca0683ed5f52,-2.239,29.86944,0,0.16666666666666666
2906,59848143-6001-470e-84fd-50a31e4bfe7a,-1.76319,29.78522,0,0.5
2907,6c1a5935-ef92-4e5f-9051-4b8d275448ef,-1.96256,29.56275,0,0.5
2908,3fa15d4c-503b-4e25-88c7-013c5c84d3d9,-1.87808,29.50892,0,0.16666666666666666
2909,bdc62b38-2fd3-4c60-a89f-5ac1a522a711,-1.72392,29.36736,0,0.4
2910,7af36381-da44-4ade-a89f-ea5250aa9eda,-1.66853,29.52844,0,0.6666666666666666
2911,a9a7cb1b-94f5-429d-8650-12a2380fe2f5,-1.6411,29.86318,0,0.3333333333333333
2912,672f3d09-4427-4f6c-9e5b-04c6f5377510,-2.56558,29.12181,0,0.0
2913,66134060-764d-42e7-8fab-0ebf7438ade9,-2.22292,29.35789,0,0.4
2914,956035c4-53fe-41e5-b780-6bb3a2561bdc,-2.18906,29.46797,0,0.3333333333333333
2915,1de37ad8-9641-43c9-b139-cc6a50d4838f,-2.12008,29.59017,0,0.6666666666666666
2916,9d65112e-66dd-446c-b0de-bda082bb1a2e,-2.19136,29.31506,0,0.2
2917,2f01fee2-7185-474c-ae25-0bc6cf889781,-2.26,29.37222,0,0.2857142857142857
2918,39a537ec-800d-4fc9-8ca2-d021604bd3c1,-1.82475,30.51747,0,0.5
2919,d8ff2af8-73d5-4c1d-99ad-95a2255034cc,-1.69364,29.26236,0,0.4473684210526316
2920,1b92e6be-9be4-4e56-9805-c5ba642e2134,-2.08597,29.55053,0,0.25
2921,cb26a25f-c12f-4e59-8577-f72e240a8bce,-1.40958,29.884,0,0.0
2922,8b61ea54-c0b0-4623-8998-67bc4b6f139c,-1.35494,29.823,0,0.0
2923,9963c629-5d6d-450f-a076-7fb9011731f1,-1.67689,29.5885,0,0.2727272727272727
2924,60117800-6a74-46d1-86bf-ba4f119a05a8,-1.73925,30.47072,0,0.6666666666666666
2925,33500ca2-997b-4421-b7ca-ee1dc083d659,-2.57406,29.13908,0,0.0
2926,c1efa7f5-cec8-4571-ae67-4c5d49986435,-1.90992,29.56394,0,0.2
2927,7b498753-548b-4f33-83cd-5028c1a0fcaf,-1.47925,30.38328,0,0.0
2928,130361a7-a30c-48b9-a663-75ef50a153e9,-2.36847,29.4455,0,0.42857142857142855
2929,2e233eb6-d248-44c2-8f8b-a4752b418d2a,-2.275,29.58639,0,0.25
2930,1c3e1098-f615-4cf7-838c-296cc1d9f744,-2.45278,29.63444,0,0.5714285714285714
2931,31263640-1037-4e44-bd61-5e67aca402e6,-2.47272,29.46644,0,0.5
2932,2cbd0eba-4c98-4a62-ae77-5dc90841fe92,-2.53058,29.03408,0,0.7142857142857143
2933,478a3388-0d8e-432f-9c6c-ddab2679368d,-2.23431,29.22647,0,0.8
2934,ad1496db-f299-4588-bfd9-3abc08cae09b,-2.44944,29.20717,0,0.3333333333333333
2935,2e2b9007-ba96-4a71-bf12-2d0a0764e3a3,-2.36306,29.00331,0,0.3333333333333333
2936,ecf8788e-2ed9-4553-b3fc-8c4539e02f60,-2.38033,29.03867,0,0.4
2937,bf56166d-a320-4bb9-b78a-75441e53e68d,-2.35372,29.19717,0,0.6666666666666666
2938,d6372f58-56cf-4f05-b733-474770d6fe30,-1.64611,29.37181,0,0.25
2939,8287d56f-4a36-492c-809f-88ecf7cc0335,-1.71144,29.39136,0,0.16666666666666666
2940,c64f16c1-dd80-40d1-8b48-f4e2621caee1,-1.65317,30.05936,0,0.5
2941,9ca20c64-7786-4f04-80e4-f2a907ebb063,-2.07744,29.75139,0,0.7380952380952381
2942,41650d19-c5af-4c61-8c2f-08de6ace8b7a,-1.68919,29.25275,0,0.4117647058823529
2943,cd886bec-95c7-419e-96b6-23ad9b0ce719,-2.70044,29.02044,0,0.18181818181818182
2944,f4dd0c13-f4bb-4131-a188-3c5a2b0500a5,-1.60306,29.66628,0,0.7
2945,70278ee9-9f9b-4db3-b51e-16df135e9d57,-1.45842,30.30244,0,0.5
2946,de25e741-2997-43fa-8989-11186034735f,-1.10902,30.38187,0,0.5
2947,8780d664-ffd7-487d-8df7-e398b99424f7,-2.49383,29.55336,0,0.42857142857142855
2948,d86b4393-3438-4a31-bc22-815566c3cade,-2.01167,30.54111,0,0.14285714285714285
2949,dfc2e6c5-2700-48b5-b8aa-c253b4e0cf71,-2.066,29.34511,0,0.2222222222222222
2950,02f628ea-4ddf-4ddb-b8fc-dd1fe039f909,-1.48333,29.95694,0,0.0
2951,d83c466c-22c3-43d6-af10-544c2e250030,-1.92569,30.04661,0,0.5757575757575758
2952,1f5fb501-f591-486f-b00c-e4cba9636b62,-1.57803,30.23811,0,0.5
2953,b30087cd-25fd-46ac-a2d8-54909f8751ce,-2.64292,29.74383,0,0.8333333333333334
2954,5d10c17e-59b2-4639-a5c3-1adbb847b780,-1.99469,30.14433,0,0.5384615384615384
2955,5c720eab-c2f8-402a-943f-9b74d9bdbfcc,-1.45569,29.82236,0,0.3333333333333333
2956,d5eb0a03-6b1f-489f-97e2-a55c6fb7bc24,-2.59683,29.74836,0,0.75
2957,f0117ccd-1aa8-47c0-a9a2-089f91273764,-1.99189,30.55792,0,0.3333333333333333
2958,64c9665c-6be8-4efb-8517-b7dfaebf5a5f,-1.43119,30.53072,0,0.0
2959,6d102597-3ea3-4283-be01-26b0e902e534,-1.99072,30.21525,0,0.5238095238095238
2960,8bc71106-a221-41fa-a71a-a8ece7b66967,-1.98022,30.10925,0,0.4262295081967213
2961,29fcecdb-532f-4fd0-9458-eed84dfd3d7f,-1.96192,30.13447,0,0.375
2962,f7eb5fd0-c9d5-4819-aefc-0da131e3a00e,-1.98892,30.15519,0,0.4
2963,a99240b2-1b7c-445d-8050-ee790c3e705b,-1.47036,29.73747,0,0.375
2964,ae3c129b-6a61-4eda-ae63-992a9fd5394d,-1.98811,30.07236,0,0.5573770491803278
2965,a410e15b-a71f-4b3f-8dc9-0950435bacaa,-1.9563,30.0384,0,0.660377358490566
2966,92427b7c-c230-4988-97c6-6d311d0f095e,-2.27669,30.66953,0,0.6
2967,8afc33d0-cd5f-4399-b663-8063980aee72,-1.97242,30.16742,0,0.44
2968,9e30c530-20cc-417d-8288-18795ce3ec6e,-2.14083,29.73964,0,0.5
2969,c99d772a-00c5-42d2-acab-7c019dbd4bf2,-2.19519,29.74017,0,0.4
2970,268a7846-4b8e-4c31-be9f-42450c107a2b,-1.50386,29.62753,0,0.875
2971,361dd51c-2a1f-492d-9db8-feabf0617b36,-1.95811,30.19408,0,0.3888888888888889
2972,61625d9c-8b22-4ef3-88ce-8fbcf0be39fc,-1.89333,30.50853,0,0.6153846153846154
2973,be7cd973-ec7c-4988-bff0-938fe93c6d35,-2.05892,29.40775,0,0.5238095238095238
2974,6ab3508c-575b-4768-86f6-313ff66648f3,-2.13608,29.30928,0,0.42857142857142855
2975,be47f0e7-ec0f-4804-9d40-b3dfb01359b3,-2.02697,30.56367,0,0.5
2976,80b7f840-088c-4fdf-8a0f-b20e5c7b9c56,-2.69481,29.01089,0,0.18181818181818182
2977,ee3dffd7-cac9-49de-8bcd-7798b53f52eb,-1.44172,30.39019,0,0.0
2978,8ea83117-372d-45b7-9d27-9da3aef1a32e,-1.37108,30.47244,0,0.0
2979,73378abf-4cb9-4084-8895-459953bf222f,-1.05761,30.45789,0,0.5
2980,869d7a24-772e-4206-9c7b-48f124a401ca,-2.41144,29.5415,0,0.4
2981,8d132518-316b-4424-a940-8451ce2bb0f2,-1.969,30.0472,0,0.7543859649122807
2982,18e55184-d5b4-40d2-883a-c3d09f3cf923,-1.69831,29.35131,0,0.25
2983,6cbe4056-8071-47cc-8e41-87f2bab27959,-2.69917,29.01111,0,0.2
2984,ba683d9f-7adc-4c17-bb89-dd244d211b0c,-1.41831,30.32678,0,0.6666666666666666
2985,206ac704-593b-4e2d-baf6-f267907fb825,-1.5712,29.70842,0,0.6
2986,4d976bf8-6fac-4327-9f1d-5729063bfc26,-1.82525,29.98486,0,0.25
2987,1866ef8d-d01b-4e14-ae20-d21891859232,-2.33611,30.13983,0,0.0
2988,62f1759f-ffc8-43bc-bb73-a9ae6f1c6116,-1.57122,29.86639,0,0.7142857142857143
2989,2e08d927-bf87-4b8f-82c5-54d80c4c1d26,-2.61878,29.92075,0,0.0
2990,c3e8505a-aa72-4b00-91b3-10b12a32df0f,-1.72278,29.95092,0,0.4444444444444444
2991,2de642bd-423f-487a-a2cc-3c3c0a13622c,-2.47897,29.83092,0,0.6
2992,0a040610-874d-4cee-8e90-8ffc6c4336d9,-1.59103,29.62164,0,0.4
2993,46d39f0b-e0ef-4316-8d36-747b073cc6bd,-1.63286,29.75478,0,0.16666666666666666
2994,08968768-71cd-4808-a232-1ed261902300,-1.81664,29.82756,0,0.5
2995,51bd6071-28d9-4069-b5f7-a00b483f8673,-1.62447,30.44058,0,0.5
2996,916accf7-c7e1-4d53-9325-771856427433,-1.41069,30.38333,0,0.25
2997,44587d5a-15f2-4ac0-a802-5055c3410c31,-1.57383,30.30036,0,0.75
2998,2fb5f58a-82f2-49f5-8fd1-b91d9cb3940b,-2.66294,29.70522,0,0.5714285714285714
2999,f8c8e11a-867e-4873-bb87-511d7e450306,-2.24781,30.10353,0,0.0
3000,09e8d08e-8448-4ba1-b6ec-b00f6919f30c,-1.67331,29.32131,0,0.25
3001,bbafe031-80f5-4f4c-b9b4-090acdf4c37d,-1.57836,29.54692,0,0.5333333333333333
3002,badc87c5-d4e5-4f5d-8e70-c87613e28c3f,-1.61056,29.53206,0,0.5555555555555556
3003,533c5ace-981a-4931-97e2-f8ef2c618c34,-1.68061,30.47528,0,0.0
3004,b790a73e-f809-4650-a125-bdcf2b7ba5e5,-2.15508,29.71347,0,0.25
3005,d2d1687d-b06d-49e2-badd-e1ee4b95a125,-1.27639,30.25739,0,0.3333333333333333
3006,01e88840-f34b-43ec-adbe-907562d54343,-1.29344,30.45564,0,0.0
3007,8091da43-a2bf-413e-a430-8f8e8227f0f0,-1.39733,30.14639,0,0.5
3008,2f458eea-c253-4cd6-80ca-8e48e070d193,-1.6925,29.3935,0,0.25
3009,e2c39c6d-e6f9-4e08-bc8e-f83df2531be3,-2.26111,29.46658,0,0.4
3010,1f506843-0e74-49c9-9cee-fee2156a2085,-1.95617,30.07889,0,0.6582278481012658
3011,3f5d11dc-71ff-4209-a7d5-4071e5b0ad44,-1.63242,29.41083,0,0.0
3012,71990d82-6c6c-45dd-82a3-064ce5905642,-2.48281,29.91711,0,0.5
3013,26bbfd6f-a9da-4843-87b2-ba6e9c639af8,-2.61903,29.22175,0,0.5
3014,90edeabc-012e-414a-b4cc-b1ec22264ebd,-2.24653,29.8755,0,0.0
3015,8582be33-9cf1-4582-9284-268d0db6cbb1,-2.15008,29.43508,0,0.0
3016,ee1065b4-3750-4bc3-970c-58fad14596b9,-2.12978,29.866,0,0.5
3017,17ffec87-2cd7-4d13-919d-164b646d9809,-2.45469,29.77969,0,0.5555555555555556
3018,dfd20cba-6ccd-427d-85bd-a2e9ce841a47,-1.85164,29.52975,0,0.6666666666666666
3019,6ec79fc2-c62f-4a16-9f75-1cd968508cef,-1.604,30.50183,0,0.6666666666666666
3020,2e2d46f2-853d-4a4d-8c27-eb91df4b0596,-1.96433,30.14617,0,0.3684210526315789
3021,eabc73e9-fab5-45c4-af33-ab18001bb779,-1.69403,29.24638,0,0.3870967741935484
3022,ea6d2561-8322-44b2-8df1-4163ed28ed27,-2.16573,30.10669,0,0.5
3023,adbc4ee2-07fd-4298-bd26-46672c39770f,-2.22369,29.61644,0,0.16666666666666666
3024,c514de8e-d3c6-460f-b37e-e9e123e2333d,-2.28603,29.42778,0,0.25
3025,06107302-ddd1-4062-a69b-35e8fe924c89,-2.00789,30.53544,0,0.2
3026,d1297e44-a628-4c59-b26f-87253eb2a84a,-2.14297,30.09033,0,0.5714285714285714
3027,30d5c015-c27f-45bf-ae85-76b5a6dd1050,-2.07992,29.44447,0,0.36363636363636365
3028,d62f0d27-d805-4d9f-a171-5cbde4e8d08e,-2.20336,29.76314,0,0.3333333333333333
3029,9571f3fa-c439-4c37-9c66-c88cd300ff82,-2.07489,29.56647,0,0.25
3030,0a95e424-756c-4fbf-a499-106e94a8b322,-2.12881,29.81878,0,0.2857142857142857
3031,e7376ba3-55b3-4063-bb20-69243596cc11,-1.10308,30.4435,0,0.5
3032,5e5a3437-a652-43d9-aea0-1e22be32e654,-1.94572,30.10972,0,0.6666666666666666
3033,b673ca0a-18a1-4366-93bb-ece7f09ae98f,-2.06161,29.85514,0,0.6
3034,5f13b1fd-61d5-4277-8139-d517e09f7b77,-1.91539,30.48053,0,0.3333333333333333
3035,c3f4ae9e-6628-4e69-a780-39ce567a0379,-1.68542,29.50247,0,0.75
3036,5d1a1ace-8f21-4e02-b8b6-6cf4c00d8dba,-2.40481,28.90072,0,0.3333333333333333
3037,12443ff8-3f2f-4e51-98ba-3bf568cdac91,-1.83706,29.64456,0,0.6
3038,4c2071a7-bea2-46ef-88fb-c28c1c967175,-2.47803,28.9145,0,0.42857142857142855
3039,f392a144-3b7c-4def-909c-d80aec1274f8,-1.50908,29.77589,0,0.0
3040,5c4005f1-ac20-4606-b60b-af36f4bd72eb,-1.54725,29.81411,0,0.3333333333333333
3041,77b74aa2-43e9-4837-9aaf-7dc785d89660,-1.38861,29.71303,0,0.0
3042,84f2b4fe-dee5-4587-9af4-ea9e16dd509d,-1.66267,29.42861,0,0.0
3043,5c5aeabf-b0a4-4f33-b03a-a21fadf99f0a,-2.47567,28.90933,0,0.4
3044,ffb4987d-c30d-420c-8dca-3bf8345aed58,-2.52239,28.96378,0,0.625
3045,a7066a1e-73f8-464a-b2e3-917a38989a84,-2.03778,30.57056,0,0.375
3046,37ab8ffa-ec88-4e3e-918c-6c7fa99b05de,-2.07186,29.7375,0,0.7647058823529411
3047,1399217c-3a8c-43a5-a89d-8ae24cef80f6,-1.70114,30.42183,0,0.16666666666666666
3048,74fc44c1-fb45-4464-b08e-0d2d1aad88fa,-1.50642,29.67125,0,0.8461538461538461
3049,21bd3adc-4dbe-48c8-9364-64f1047b1df0,-1.64708,29.74878,0,0.2857142857142857
3050,d2fd10e8-efd2-45ca-903c-6152c4f10c85,-2.02683,30.21308,0,0.4
3051,df111010-e689-4f13-8fb7-922891f6907a,-1.75083,30.33394,0,0.6
3052,4ab16ff4-2fa5-4595-89e3-e7a10caabaab,-1.70953,29.95089,0,0.625
3053,b2cc3b56-ac3c-490f-a165-80a47758fe9c,-1.58831,29.79314,0,0.3333333333333333
3054,38778710-9fd3-4872-a166-5d374620087b,-2.21514,29.42694,0,0.125
3055,6cec338d-a1b3-423f-b64b-049521d0db6e,-2.14319,29.54739,0,0.3
3056,e972e290-ecd2-4f08-8cab-9ba9019e5762,-1.98964,30.08892,0,0.3584905660377358
3057,029483d9-96aa-4aa6-a22d-c6b1e6129107,-2.32914,29.13756,0,0.7272727272727273
3058,bc12ccff-1bb4-41c2-bd8a-ccf28975986e,-2.43336,29.73314,0,0.75
3059,538a056f-80e2-480b-b5d2-68b191ccff31,-1.58,30.13511,0,0.8
3060,dadef287-66a4-4f04-984b-14d36b98c6d2,-2.28511,30.56642,0,0.5
3061,f1a8a68f-c54d-48d7-9507-a039c37ba6bc,-1.54253,30.23536,0,0.7
3062,ab04ffa6-fe9b-499f-a6fd-171227dd24e2,-1.71042,29.81153,0,0.16666666666666666
3063,9426dd80-fa81-41c1-86ce-75b831418dfd,-2.69906,29.78461,0,0.25
3064,df0662c5-9eaa-422e-b71d-d64a23fb49a4,-1.54475,29.784,0,0.25
3065,a728d172-28d3-4c74-aa35-cc3028c01133,-2.48786,29.57833,0,0.6666666666666666
3066,3ff7a1fe-a068-4821-bc90-998dc09e999f,-1.79411,29.65447,0,0.6666666666666666
3067,dc39fe43-4f16-4649-978a-828411f8a9fd,-2.26958,29.84175,0,0.6
3068,5303f873-54b3-40c5-9938-596c87b561ae,-1.37631,29.77956,0,0.2857142857142857
3069,0cee2190-4bbd-4336-88dc-1917da13de90,-2.53169,29.60261,0,0.5
3070,636b6c21-2d01-490c-939f-562793b495c4,-2.05519,29.76467,0,0.7222222222222222
3071,251a1c96-81b8-4a27-970e-86514976f645,-2.61864,29.016,0,0.5714285714285714
3072,7ae3bbe6-0073-4ca1-aa64-f1168bbc5763,-1.73522,29.64869,0,0.42857142857142855
3073,db508f24-5c57-4539-b94a-c79814514c02,-1.36222,29.80706,0,0.0
3074,6e23ce2b-7d08-4d4b-afad-c78c04884626,-1.80083,30.43833,0,0.5555555555555556
3075,3d799b50-fa12-427f-856c-27004ab02afa,-1.49547,29.81044,0,0.0
3076,c3003770-7969-41ca-8302-bd3fac2f0a87,-1.81933,29.89042,0,0.16666666666666666
3077,41a04f91-98e5-42cf-9366-3e8e3d7a139f,-1.76908,29.55203,0,0.5
3078,6347a95a-dcb9-4be5-9a97-27947c9382ba,-1.69042,29.24644,0,0.42424242424242425
3079,cb9eb5df-6d65-4be7-96bb-911d2502ca95,-2.16269,29.77544,0,0.3333333333333333
3080,d6c8582e-baf1-471a-a3a5-00e24a45ee02,-2.23825,29.42067,0,0.0
3081,0dcd5f3c-fe09-4a52-a34e-2df458263c91,-2.65686,28.94139,0,0.5555555555555556
3082,2e783c9c-2b87-4e09-8896-4cd1bb340fc3,-2.22408,29.64931,0,0.5714285714285714
3083,8b910a2c-4068-45f5-a949-6b5d29d748d0,-2.04872,29.86617,0,0.6666666666666666
3084,488011d0-cd82-42d0-af18-5c035c4a6246,-2.40833,29.57486,0,0.25
3085,9d172331-a06c-4149-b97b-dd7031c59e82,-1.64378,29.67967,0,0.3333333333333333
3086,10f668f3-4cba-4bfc-8253-4975f807bcab,-1.63558,29.70925,0,0.2222222222222222
3087,d4aef163-d06e-400d-939f-63ac2f269cf6,-2.05069,29.36397,0,0.14285714285714285
3088,23183591-7664-4a30-a51c-0e38331e3f0c,-1.736,29.29192,0,0.0
3089,a9ed26f8-d26a-4e32-9f7f-7ebf3ae7bcf4,-1.61481,29.83169,0,0.2857142857142857
3090,fce66e64-6c28-40ce-b487-46831ad96ece,-1.9775,30.10014,0,0.43478260869565216
3091,c9f33042-24a1-4f85-9fe5-302db7af42c9,-2.44644,28.94275,0,0.7142857142857143
3092,d64a1516-9a26-4c31-b576-6dd96a9edd9a,-2.41256,29.75217,0,0.8
3093,d72a064b-07f9-4fbe-8fa2-073cf8c31365,-1.48875,29.97208,0,0.18181818181818182
3094,a37fa9db-401e-4f81-913d-6b4ebb01e405,-1.48611,30.3895,0,0.25
3095,342ce846-ad48-4150-9d23-51edfb3b11bb,-1.98889,30.08317,0,0.43636363636363634
3096,0a84ad06-37c7-4156-bcbd-d81e323c9a1c,-1.62667,29.68361,0,0.2857142857142857
3097,c7867e11-1677-4d5c-87a6-9d321bf43d4b,-2.20108,29.22567,0,0.8571428571428571
3098,72717544-aeac-422e-9988-6194774f879b,-1.76392,29.81317,0,0.4
3099,e70e08de-7f85-4dd5-a2fa-a94df2a2134a,-1.64156,29.78675,0,0.5
3100,aa4c331c-8519-453c-871a-08a5fb2d00f5,-1.85928,29.35458,0,0.5714285714285714
3101,2b47fe7a-cc80-4ce4-b391-e82aea9fef26,-1.45161,29.82942,0,0.3
3102,9506fc59-e3a1-47fe-9b85-de6dbf64b4c6,-2.20622,30.14367,0,0.45454545454545453
3103,53b7cf8e-dedd-4106-95c2-6b6d48910661,-2.28358,29.29244,0,0.5
3104,6f484595-dc12-459b-bed3-1f2e5fe659d0,-2.60036,29.17872,0,0.5
3105,985a2ec3-518d-4c87-9bec-7b9da20cb368,-2.55775,29.10464,0,0.2
3106,27dbf990-a056-4231-9da4-f25dc1efce89,-2.58419,29.14769,0,0.0
3107,726b7467-c969-421f-9b0a-b3f4f05faf0e,-2.41381,28.89342,0,0.2
3108,16c2c5e0-27fa-49b5-97b2-463dbff04824,-2.40864,28.91544,0,0.36363636363636365
3109,e687ea75-b7f2-4a43-88f5-23698c915215,-2.68881,29.00369,0,0.2
3110,6d579f73-b58a-4de4-b5b0-49b8d140f5d8,-2.18319,29.76983,0,0.3333333333333333
3111,8d043143-576e-470f-9a3b-f874be0c632b,-1.63269,30.23378,0,0.2
3112,91cc301d-de6a-4297-abce-831f0f4400b8,-2.52114,29.67881,0,0.8
3113,c8aa29b8-71da-4905-a3c6-66e4058cd10b,-2.43328,29.65264,0,0.625
3114,1c0a0c74-bcf2-4402-9dbb-fa3a2927b716,-2.298,29.47097,0,0.4
3115,c06fde48-32f3-4376-b6fa-66623499ad1f,-2.17222,29.84083,0,0.75
3116,450290ca-b170-4e17-9f5c-c2f3f2f74014,-2.19797,29.66311,0,0.75
3117,cc4b416e-2f2f-4e93-9240-a616ccb4fd95,-2.08847,29.59825,0,0.42857142857142855
3118,8cb89dde-dd45-4bc8-9a5a-be33a9f8cc83,-1.81925,29.96186,0,0.0
3119,dd62a3c6-77d3-48bc-b24c-5bf1f83e45f8,-1.63869,29.63478,0,0.36363636363636365
3120,04565f1b-685e-4ea2-8ace-4516cf4816b4,-2.05667,29.59203,0,0.5
3121,772fefcc-d616-41f9-bc44-8df0ef22eb83,-2.15333,30.69517,0,0.5
3122,c8554030-92bb-4a6a-a2a4-115fe2e253ec,-2.15722,29.73556,0,0.46153846153846156
3123,70c89451-68c2-4d1b-9b5f-ba4f1845b915,-2.02969,30.09978,0,0.0
