,giga_id_school,latitude,longitude,bin_internet_availability,norm_number_of_students,norm_Schools_within_3km,norm_pop_within_3km
0,cdf4f80c-e3cc-4ebc-8931-8fe76018cc61,-2.15939,29.54797,1,0.002148091988880465,0.09411764705882353,0.041845205266358376
1,a58be9dc-59c4-4cf9-96f5-e5b8fa84ba82,-1.73064,30.21272,1,0.006444275966641395,0.07058823529411765,0.033869302674190034
2,9fe38ae7-7d51-4646-841b-1b6daa31c987,-2.29503,29.64556,1,0.006696992671215567,0.047058823529411764,0.033116258679450734
3,8b5c3930-c3ea-44d8-a510-086f8c6889aa,-2.37183,30.59917,1,0.008718726307808946,0.011764705882352941,0.029531345014353796
4,2288686a-e13e-423a-b0bb-b7d08452e9a8,-1.92681,30.59181,1,0.010993176648976498,0.011764705882352941,0.03832746453975931
5,f74950df-3e95-47d3-8024-d21953768cac,-2.4235,29.82778,1,0.010993176648976498,0.03529411764705882,0.049955453735522466
6,dee212e0-445a-4981-a8a7-3327105e9aa9,-2.159,29.40411,1,0.011498610058124843,0.03529411764705882,0.03499710095739114
7,ae5a9dc6-6feb-446f-9f16-ec1dcf3988d3,-2.07858,30.64322,1,0.01819560272934041,0.023529411764705882,0.0320556333347475
8,3e6b3ca7-af2c-4768-8280-0db56cff7209,-1.71097,30.36919,1,0.02868334596916856,0.011764705882352941,0.05660557464681176
9,f016ffce-04f2-45f4-a7f1-ff62ebd87266,-2.19431,29.52842,1,0.03702299722011625,0.08235294117647059,0.0330596919943999
10,404ed8e0-0ed1-48a6-b681-cda49473ce50,-1.7365,30.33806,1,0.03727571392469042,0.03529411764705882,0.055180801267093744
11,cd9ae702-c00f-4f5c-ab9a-f9753d3be8eb,-2.11264,30.37303,1,0.04056103108415466,0.023529411764705882,0.04318866403631581
12,f28c0e71-4b57-4758-b808-166d6b0a0d8d,-2.66144,29.87442,1,0.043467273186757645,0.058823529411764705,0.053706532037956244
13,cd053f0f-55be-4bed-bf46-6b2c141c5c05,-1.45806,29.62778,1,0.04599444023249937,0.07058823529411765,0.09043598772502934
14,42444abb-f7ef-417d-a101-89ca794168ba,-1.55411,29.62317,1,0.04612079858478645,0.07058823529411765,0.0753397536520866
15,579e31de-8a22-4cc3-9e8a-268ee7c3e28b,-1.52,29.63275,1,0.04637351528936063,0.4,0.2474120741589241
16,8d1fe5cd-f854-4bad-8dec-48eccab4c5d9,-2.51553,29.03203,1,0.04788981551680566,0.12941176470588237,0.07931709869472374
17,77461264-0a29-4f17-93b5-c8f0130c5f54,-1.96075,30.55314,1,0.049785190801111955,0.03529411764705882,0.0571323519013477
18,d3959c89-1ef2-4da9-b47a-3c6d9b8eb6a4,-2.19683,29.23906,1,0.05016426585797321,0.11764705882352941,0.047438236250760116
19,fa523339-35ed-4b5d-b4fa-3f28f5256cd0,-2.27167,30.00694,1,0.05471316654030831,0.023529411764705882,0.04660741306407591
20,2b0373f5-1583-4736-8ab0-7cdb8f606879,-1.977,30.25578,1,0.05471316654030831,0.07058823529411765,0.08317070411381217
21,4a83996e-b945-4319-b547-ad7eab7694da,-1.93358,30.45311,1,0.056103108415466264,0.10588235294117647,0.1034604669579851
22,163506c0-82e1-4bbe-afe5-b77c4f769a18,-1.88797,30.45139,1,0.05673490017690169,0.09411764705882353,0.048102894800107474
23,942bb2ef-bd16-46f9-9c93-f3b19d7dfa3a,-2.7425,29.69778,1,0.05976750063179176,0.07058823529411765,0.05091001654575538
24,b5eaf241-a626-443d-8aab-e3f929604b8e,-2.11836,30.20881,1,0.06014657568865302,0.03529411764705882,0.031677343628470016
25,914c97d8-1366-4a58-8e1c-3c2b923df67a,-2.34625,30.1025,1,0.06178923426838514,0.023529411764705882,0.03171623322444247
26,91a7f3d8-d77a-45c7-be77-00c414bea062,-2.71369,29.53931,1,0.06570634318928481,0.07058823529411765,0.028647490560434433
27,a42d2800-13aa-4529-845d-13e11a99472b,-2.66431,29.46206,1,0.0677280768258782,0.023529411764705882,0.02937225121264831
28,5f322f84-fcb0-40bd-b0f3-c64cd9b3731e,-1.95989,30.01356,1,0.07101339398534243,0.17647058823529413,0.2017592239050811
29,030df3ff-4a36-43a0-943a-12d2eaa8044b,-1.86742,29.30214,1,0.07417235279251959,0.08235294117647059,0.06182031592493601
30,cc264ec8-dcfa-41dc-a7d0-ed1cc1de73dd,-1.62772,29.63278,1,0.07707859489512257,0.11764705882352941,0.054067144655155344
31,0212a147-35ff-44ae-b2d2-23ff7176d18e,-1.58444,29.6835,1,0.129011877685115,0.10588235294117647,0.06029301542856335
32,5000af74-5810-4d56-8bc5-f8deb388503a,-1.4395,30.1425,1,0.13128632802628254,0.058823529411764705,0.025486827033218785
33,42e80893-9627-4e01-acc2-ad5b4e830979,-2.05744,29.42708,1,0.15516805660854183,0.2,0.10111294952837527
34,2006fe12-0f17-4fdf-a441-1f8347404fef,-2.10892,30.55164,1,0.20217336365933788,0.047058823529411764,0.0788221402005289
35,17af0280-1149-481a-ad14-7d41fa1bd909,-1.48817,29.704,1,0.03828658074298711,0.047058823529411764,0.06153041166405046
36,6980f304-b070-4c9c-85eb-7cb2c28184ae,-1.95989,30.01356,1,0.04169825625473844,0.17647058823529413,0.20165669678842646
37,8b61d879-f3e1-436a-8252-bcbddd083cee,-2.087,30.88944,1,0.0621683093252464,0.011764705882352941,0.0015449775854510486
38,4bd19ca5-1636-4b32-8718-1005ed7d4712,-2.17789,30.66397,1,0.11650240080869345,0.03529411764705882,0.03300312530934906
39,1ccd2add-1fba-4311-9c7c-adf01e3e822a,-2.73697,29.65547,1,0.12875916098054083,0.047058823529411764,0.044404847764908856
40,48aaa8c9-c246-470e-b9e9-010506326f2b,-2.62986,29.75617,1,0.13204447814000506,0.17647058823529413,0.17888153521983227
41,6119fddc-ce17-4555-a811-ad07250c4f43,-1.60192,30.51772,1,0.15794794035885773,0.023529411764705882,0.031390974785400136
42,0d8df4d0-fae8-4637-b061-2142f8b0c31e,-1.75842,30.18558,1,0.1652767247915087,0.058823529411764705,0.03987951296084171
43,7e97b052-99fb-44c0-98fd-5bf872c5e582,-2.06964,29.75481,1,0.1726055092241597,0.43529411764705883,0.2122700210710902
44,1281c839-a765-4faf-abc0-e642dd6ff27a,-1.88797,30.4513,1,0.17424816780389182,0.09411764705882353,0.04815946148515832
45,39217bc3-eb0b-4c57-9b03-8b16747aff2d,-2.28556,29.17447,1,0.18220874399797826,0.09411764705882353,0.06246022654957363
46,4e0c346d-dd6a-4692-a6c2-e1e6cd15843f,-1.52,29.63275,1,0.19459186252211272,0.4,0.2474120741589241
47,9348cc41-ca40-46fb-ac7b-d76487856aae,-2.19753,29.26072,1,0.19964619661359617,0.10588235294117647,0.04237551793871
48,6e0fc426-696f-4694-91f0-9915831fb007,-2.02583,29.64808,1,0.2004043467273187,0.047058823529411764,0.02851314468343869
49,2b73f9ec-8927-4594-ae6d-8bffab0e8edc,-2.71917,29.70997,1,0.22795046752590345,0.07058823529411765,0.042866941015089165
50,15a04871-fa10-4202-81ed-b5a6b60240b5,-2.27167,30.00694,1,0.23540561031084153,0.023529411764705882,0.04660741306407591
51,c41ef1dc-f241-4d35-874e-7133ea52840d,-1.53819,29.72103,1,0.23540561031084153,0.07058823529411765,0.06219153479558214
52,a7650542-2d4a-44dd-9cbb-a2411d3e54e2,-2.24883,30.24878,1,0.24159716957290878,0.03529411764705882,0.01925388542417943
53,8857dfa5-8b27-4b30-953d-a4dd866883e1,-2.19683,29.23906,1,0.2623199393479909,0.11764705882352941,0.047438236250760116
54,f3a7d7fc-e074-49eb-a714-c95054c7622a,-2.34625,30.1025,1,0.26560525650745515,0.023529411764705882,0.03171623322444247
55,4d798d8c-f835-447a-ad06-3107b9c58279,-1.57544,29.74597,1,0.2891079100328532,0.058823529411764705,0.06261224951564776
56,ea74f630-b049-4d0f-8fe8-59a4db42bf18,-1.56681,29.89178,1,0.2970684862269396,0.047058823529411764,0.03261069393180886
57,d0efcc9f-048b-41a7-900e-aaa6f4d9bc8a,-2.55556,29.70481,1,0.319686631286328,0.07058823529411765,0.06301882256445067
58,1cd38442-ee88-4158-9bf7-d85fe6173b25,-1.69781,30.22939,1,0.3265099823098307,0.08235294117647059,0.03217230212266486
59,45051468-95ac-45e3-b3dc-ea00a603067e,-1.55411,29.62317,1,0.33535506696992673,0.07058823529411765,0.0753397536520866
60,2f8394dd-c4e6-4999-abe8-dfa33276caa0,-1.98222,30.04803,1,0.3469800353803386,0.5294117647058824,0.6523765078556983
61,d015c113-3fef-4ac9-a8e8-d4aef403492a,-2.7425,29.69778,1,0.34849633560778365,0.07058823529411765,0.05091001654575538
62,73a43fa5-0542-462d-adca-b93f8b4c633e,-2.56867,29.56333,1,0.3531715946424059,0.047058823529411764,0.022347376012897203
63,551ead4d-5a63-4b35-bba2-78c8cfba159b,-2.52883,29.57692,1,0.3639120545868082,0.08235294117647059,0.03750724760652214
64,dc1a6da2-1879-4dda-9339-39a0ff524542,-1.92025,29.84844,1,0.3939853424311347,0.07058823529411765,0.049163520144810714
65,51b1b15e-128a-4a41-a1ad-9e425e09793f,-2.51553,29.03203,1,0.4037149355572403,0.12941176470588237,0.07931709869472374
66,bc6b76da-9586-461c-961a-820fe143a6ca,-2.24714,30.06964,1,0.4910285569876169,0.011764705882352941,0.04074569032568269
67,467a75fd-081f-497f-b9b0-235f37703fd6,-2.38875,29.82669,0,0.022239070002527166,0.10588235294117647,0.050164043386647435
68,3f8a1e5c-bfaf-4304-9e24-dd176834c84d,-2.25747,29.69072,0,0.027925195855446044,0.15294117647058825,0.08901121434531133
69,5f196471-b063-47e1-bd08-b9996370f5f2,-1.60433,29.86117,0,0.03209502148091989,0.08235294117647059,0.034466788285039525
70,18ada197-dd45-4e5d-86a0-d8e9a5139ab3,-1.6035,29.60625,0,0.037402072276977505,0.09411764705882353,0.0474877321001796
71,ef6771b2-ea6b-4a12-b58e-42131b6ced2f,-1.58458,30.10442,0,0.04523629011877685,0.047058823529411764,0.0656633150905774
72,6d34b5d2-b240-465a-85f6-f1ba3c1dccb0,-2.71369,29.53931,0,0.047637098812231486,0.07058823529411765,0.028711128081116626
73,b2368682-6c2d-471d-a759-04e7c4460be3,-1.65222,29.95417,0,0.05016426585797321,0.058823529411764705,0.059083902535601654
74,06f65b59-fcf5-49df-b278-6130f67b311a,-1.64997,29.54019,0,0.05686125852918878,0.09411764705882353,0.06352792272990822
75,96c14cd5-0076-4082-af32-e163696b2762,-2.12494,29.83972,0,0.05686125852918878,0.047058823529411764,0.05696972268182654
76,4d0d9d04-54b3-4dc6-9898-f512a5541c1a,-2.14389,29.57453,0,0.06583270154157189,0.023529411764705882,0.03622389093943122
77,c02a6d59-e356-4348-b73b-95da1fc836dc,-2.04961,29.39758,0,0.06583270154157189,0.17647058823529413,0.09122085048010974
78,4aa42530-4e67-48b7-a840-1f99c456c05f,-2.24714,30.06964,0,0.06583270154157189,0.011764705882352941,0.04074569032568269
79,9bac841f-303e-4458-b9f5-5effffb67c00,-2.09372,29.57283,0,0.06583270154157189,0.08235294117647059,0.03724209127034633
80,c62903a2-ace4-42bb-baa0-d7e892371127,-1.46344,29.83867,0,0.06583270154157189,0.10588235294117647,0.051245881238244737
81,3abfa6a0-68d5-4843-9d7d-5b457703f73d,-2.42639,29.92306,0,0.06684356835986859,0.023529411764705882,0.04879230127416458
82,f258eae4-b488-47ed-b1a4-5f359ae83899,-1.97592,29.41856,0,0.07328784432650998,0.058823529411764705,0.04986353287231485
83,13caffbf-2abe-4a9b-aa3c-a9010dd83096,-1.94861,30.10556,0,0.07354056103108415,0.6235294117647059,0.6751127798283201
84,8f23bf7b-64a6-4aea-b314-c43ee8b06b92,-2.41675,29.06681,0,0.07897397017942887,0.058823529411764705,0.044365958168936404
85,31d8631c-8e8b-4b66-a668-84ddaa9345b3,-1.46542,29.80956,0,0.07973212029315138,0.058823529411764705,0.02912477196555089
86,73d8d88e-3425-4df2-9b87-cffcded1427c,-2.159,29.40411,0,0.08642911296436695,0.03529411764705882,0.03499710095739114
87,71c0ef0e-9554-4cc1-b781-03ada10e0f48,-1.97367,29.34669,0,0.08655547131665403,0.047058823529411764,0.04068912364063185
88,95dd9f9b-bbce-4f38-83f3-e49b88cc734d,-2.15939,29.54797,0,0.09198888046499874,0.09411764705882353,0.04185934693762109
89,e3d2673d-329b-40c1-bf2d-825764df130f,-2.05744,29.42708,0,0.09615870609047258,0.2,0.10111294952837527
90,5b0592dd-e922-49aa-9167-6272c3592bbc,-1.99619,30.11775,0,0.09628506444275967,0.38823529411764707,0.29859785329430233
91,9531a4af-6188-4779-b2f8-9606620f1605,-2.24797,29.55306,0,0.09754864796563052,0.03529411764705882,0.029022244848896244
92,864415e3-147d-4032-9efd-512efab640c8,-2.00147,30.09342,0,0.09754864796563052,0.4117647058823529,0.4057139422736979
93,165248ce-7527-4c82-8e0e-29e6d714087b,-1.93997,30.25631,0,0.09919130654536265,0.08235294117647059,0.06080918642965226
94,a615f9dd-95d1-43b3-bd7a-6e41142c3e61,-2.07353,29.38553,0,0.10159211523881728,0.10588235294117647,0.05695204559274815
95,ade02872-f4d6-4b9c-a9c6-a00c29f29a76,-1.57244,29.94133,0,0.10171847359110438,0.023529411764705882,0.044631114505112215
96,bb9f4ec3-9151-450c-a667-b94d3e801962,-2.51264,29.90617,0,0.10475107404599444,0.03529411764705882,0.048707451246588325
97,bb03f5d4-ad67-4abf-96a9-0b66eaa68aef,-2.14258,29.4895,0,0.10614101592115238,0.08235294117647059,0.025373693663117106
98,9eca43bc-e67a-4ce8-8eea-1bde1f5719ba,-1.62772,29.63278,0,0.11763962597927723,0.11764705882352941,0.054067144655155344
99,3e7feede-9234-47cb-a8fe-60e1ac17ef03,-1.84697,29.6875,0,0.133434420015163,0.1411764705882353,0.0398971900499201
100,dc72766d-251a-4901-aad5-0a8a74394dde,-2.19431,29.52842,0,0.1381096790497852,0.08235294117647059,0.03308443991910964
101,cedfa816-1d36-49b7-af90-75342700696d,-1.75331,29.70853,0,0.13987869598180439,0.058823529411764705,0.039462333658591774
102,f290021d-858f-48cc-94b1-fd93f976989b,-1.96075,30.55314,0,0.140763204447814,0.03529411764705882,0.0571323519013477
103,38889d14-99e0-4372-b23c-99d49e9b9738,-2.18444,30.02511,0,0.1580742987111448,0.03529411764705882,0.037291587119765816
104,0da116e4-3b3d-48a6-8f7e-f1af73e60a44,-2.07264,29.43117,0,0.16413949962092494,0.12941176470588237,0.07781808154087651
105,64c2fddb-f513-4992-a795-1a49ed9a8b10,-2.52394,28.92239,0,0.1652767247915087,0.058823529411764705,0.042463903384101935
106,85229b34-fc9a-49c9-a814-77680eadc56c,-1.38436,29.77844,0,0.17778620166793024,0.08235294117647059,0.050068587105624146
107,9ff7841b-10d6-4525-abf9-555c8e9af038,-1.93939,29.44003,0,0.18271417740712662,0.03529411764705882,0.04509425423896596
108,cdffcd4a-197d-43f1-8e2b-6c5a698c7f06,-2.66144,29.87442,0,0.18473591104372,0.058823529411764705,0.053706532037956244
109,52f6f616-7fe9-4511-a245-cb5ba7d97b34,-1.93658,29.63167,0,0.19522365428354815,0.08235294117647059,0.06460268974587417
110,f2cc9407-4aa8-498d-a658-b7bcdcb047b4,-1.92681,30.59181,0,0.2010361384887541,0.011764705882352941,0.03832746453975931
111,d9851893-1b5e-4bde-ab16-87b74409ebdb,-1.99108,29.60239,0,0.21013393985342432,0.023529411764705882,0.04890189922645058
112,8a0d5cbf-ed76-49c7-b874-c960103bec65,-1.71097,30.36919,0,0.2211271165024008,0.011764705882352941,0.05660557464681176
113,5be66c14-0b48-4ba4-a885-c49818c4dc76,-1.68258,29.79269,0,0.26547889815516806,0.023529411764705882,0.035888026246941866
114,72b7b9c3-736d-4587-a50b-0f956610625b,-2.25453,29.83311,0,0.2696487237806419,0.08235294117647059,0.05100547282677867
115,340053c7-d16b-4ab8-95c8-e1126887b9f5,-1.50222,30.40417,0,0.27634571645185746,0.023529411764705882,0.018115480887531288
116,570d0d7c-15b0-449e-a7cc-f072a9a2c6be,-2.13072,29.65639,0,0.30136467020470054,0.058823529411764705,0.04304724732368871
117,0d1b1721-d0e1-4d66-a753-031cff2dfb5f,-1.40706,29.73625,0,0.31324235531968664,0.09411764705882353,0.10183771018058914
118,d45c21e1-80af-4edd-8db0-b5baca76720b,-1.76003,29.9945,0,0.3248673237300986,0.023529411764705882,0.036078938808988444
119,2ef7ede8-dea8-4f7f-987a-a7f42c863930,-1.45806,29.62778,0,0.3481172605509224,0.07058823529411765,0.09043598772502934
120,2f385d1b-c9e9-4792-9c46-d134fa6da33d,-2.34861,29.94,1,0.04043467273186758,0.011764705882352941,0.031991995814065304
121,59d80596-316d-45fa-ad02-44491103be93,-2.0036,30.4303,1,0.041066464493303007,0.03529411764705882,0.0420149053215109
122,94143ec8-9f0b-40e2-86ab-d82681484ca5,-2.41675,29.06681,1,0.05092241597169573,0.058823529411764705,0.04434828107985802
123,528caefc-a2be-41de-95fc-a51bd847019e,-1.88392,30.55436,1,0.05547131665403083,0.011764705882352941,0.043054318159320065
124,95dbf937-6500-4e1e-8f40-a45963b3de30,-2.38519,29.71578,1,0.06292645943896892,0.07058823529411765,0.03910525645920835
125,ec420e30-336a-4896-a464-ae4a3df47406,-2.28381,29.67525,1,0.08263836239575435,0.011764705882352941,0.0527731817346174
126,96d1c767-60ef-45c1-a0c8-90c40d6baa45,-2.40847,29.48153,1,0.09085165529441495,0.023529411764705882,0.025805014636629757
127,4f4332cd-6ab8-49fc-a291-a58ea7165b62,-2.29503,29.64556,1,0.10285569876168815,0.047058823529411764,0.03312686493289777
128,6c82ef24-2e44-4c47-9fe1-826186c68fa6,-2.05116,30.3102,1,0.11233257518321961,0.023529411764705882,0.03276625231569867
129,9c951453-5f29-4548-9b1f-6213ccc02d88,-2.64178,29.62231,1,0.11435430881981298,0.07058823529411765,0.04277855556969723
130,1ee26174-b8b0-4af9-8780-ac0ec0f57d9e,-2.37183,30.59917,1,0.13419257012888552,0.011764705882352941,0.02951366792527541
131,8aaf61e6-aa25-4cbe-868f-006e609056dd,-2.05228,29.69272,1,0.1400050543340915,0.07058823529411765,0.03170916238881111
132,55afe358-a378-4baf-9e63-1e2babdf4582,-2.0463,30.4428,1,0.14139499620924942,0.023529411764705882,0.04556800022626674
133,7108687e-44b4-4c31-9577-c1c90cd6eb3a,-2.34972,29.69122,1,0.15428354814253223,0.08235294117647059,0.04246743880191761
134,aaec6dc4-930b-4b09-addf-f50d0d7d2d61,-2.47197,29.44953,1,0.15832701541571897,0.09411764705882353,0.05330702982478469
135,efcbb0bf-f314-48c4-8871-ed2760aab616,-1.77739,30.13433,1,0.16287591609805407,0.09411764705882353,0.0634360018667006
136,92e492a9-1021-475f-8803-128a6d2213ed,-2.07186,29.93717,1,0.18789486985089715,0.047058823529411764,0.056252032865244016
137,850967e8-c1f1-4d15-b6cf-00ea191a9746,-2.34239,29.75711,1,0.20520596411422795,0.3058823529411765,0.13477012713362466
138,b54ceab2-332c-4eef-8a36-05ca3948d36d,-2.19369,29.79658,1,0.24184988627748294,0.011764705882352941,0.04421747062067795
139,77b80258-652e-4c3a-93e1-d2836eb04504,-1.76275,30.12431,1,0.26611068991660347,0.07058823529411765,0.053363596509835534
140,52c77a5a-596e-4642-850a-1146d3964c29,-1.90127,30.3145,1,0.0731614859742229,0.03529411764705882,0.05486614908149845
141,e606310f-04d4-47f8-9076-a097f94e339b,-2.39556,29.44839,1,0.08099570381602224,0.047058823529411764,0.02825859460070991
142,32ef5059-4d4e-4c17-a44c-5af6a2a4a320,-2.4235,29.82778,1,0.09502148091988881,0.03529411764705882,0.049955453735522466
143,f35d3865-a9c7-4123-be58-d1c5320e5c35,-2.16661,29.95794,1,0.12332575183219611,0.023529411764705882,0.04451444571719486
144,c207eb81-7969-4c49-bb11-5d6e411cd2ae,-1.93358,30.45311,1,0.1344452868334597,0.10588235294117647,0.1034604669579851
145,ed02d14f-4070-4fe9-b8fa-c42a23678fb8,-2.04842,29.89786,1,0.17197371746272427,0.03529411764705882,0.06149152206807801
146,29f8d587-2154-47ca-8bd4-737ebc8e1964,-1.87008,30.45275,1,0.1782916350770786,0.09411764705882353,0.03788200189498395
147,ae279433-fddb-4ce1-80c6-98f610d1f963,-1.64556,30.13689,1,0.21013393985342432,0.047058823529411764,0.04296946813174381
148,febed942-472d-4e28-93ef-551bf01eeca1,-1.98856,30.01056,1,0.21278746525145312,0.09411764705882353,0.10016899297158938
149,dc7ebc2f-65d0-4d5c-9c51-d9d558ed1ae5,-2.11264,30.37303,1,0.2386909274703058,0.023529411764705882,0.04318866403631581
150,0cfcd7a9-35a5-45c6-be8b-f03271476c31,-1.90456,29.30792,1,0.23970179428860247,0.10588235294117647,0.08430557323264463
151,9526a18f-897b-4e52-8860-4deaec7b20b6,-1.977,30.2557,1,0.24551427849380844,0.07058823529411765,0.08370101678616379
152,6786eb3f-4021-421a-8aa6-c0dba236e8f7,-2.69642,29.56889,1,0.2930250189537528,0.08235294117647059,0.027293425537029965
153,ea537711-8dd4-40d6-8db8-dba13021bb4c,-1.7365,30.33806,1,0.3004801617386909,0.03529411764705882,0.055180801267093744
154,574346d6-409b-4991-8ed8-3c36e1044155,-2.22519,29.79342,1,0.31425322213798335,0.15294117647058825,0.13921061191011555
155,3a428490-0e51-4e95-baf4-e1e65dad8853,-1.98208,30.44875,1,0.3185494061157442,0.07058823529411765,0.06862245980229943
156,195ee876-9e21-4eb2-9276-66fde8a9b899,-1.73064,30.21272,1,0.325499115491534,0.07058823529411765,0.033869302674190034
157,a02e326f-80de-43dd-b235-84eb80c9d7f1,-1.7805,30.43569,1,0.32739449077584026,0.023529411764705882,0.059547042269455404
158,909a1890-4d0e-494c-8830-ff8226f22354,-1.96842,30.32261,1,0.3287844326509982,0.03529411764705882,0.04992009955736569
159,e2943cde-4a12-417e-aca2-8413bbe5f009,-2.28881,29.75194,1,0.3305534495830174,0.09411764705882353,0.09982252202565299
160,3113ba48-02cb-47d9-aa2d-f36380795654,-1.60606,30.08261,1,0.33484963356077835,0.10588235294117647,0.12029966201405683
161,f6074c55-949b-41f4-99c7-d99ddd96187a,-1.96342,30.02925,1,0.4011877685114986,0.4,0.5825307934891746
162,ee4d08f2-4289-49bd-b156-4cb0ee8d4092,-2.31236,29.92469,1,0.43277735658327016,0.08235294117647059,0.056594968393364725
163,ec9ef2ee-94dd-4720-a389-af2fa015c8fb,-1.95067,29.96389,0,0.03222137983320698,0.11764705882352941,0.08256261224951565
164,9f4e4805-1e33-4b87-825f-6582552b2bb0,-1.94861,30.10556,1,0.0013899418751579479,0.6235294117647059,0.6751127798283201
165,b57a6ce2-9956-45d4-89ed-91c9008e70c9,-1.99619,30.11775,1,0.0031589588071771544,0.38823529411764707,0.29859785329430233
166,a844659c-d00a-4265-ba83-56001db44de8,-2.24883,30.24878,1,0.005686125852918878,0.03529411764705882,0.01925388542417943
167,9ac9a798-387d-41b2-abdf-6bbf2a0605e0,-2.04633,30.44283,1,0.005686125852918878,0.023529411764705882,0.04554678771937268
168,3666b32c-61a3-48f0-9485-b0461f9e37b1,-2.52394,28.92239,1,0.006317917614354309,0.058823529411764705,0.04246036796628626
169,d4daf4bd-c4c9-42bb-981d-9097ef744dcc,-2.28381,29.67525,1,0.008086934546373515,0.011764705882352941,0.0527731817346174
170,5569935c-a32e-441e-8b44-07b5583dee57,-2.25697,29.61489,1,0.008718726307808946,0.023529411764705882,0.03491932176544624
171,e0b30942-2a8a-4a08-bbf8-d607decb7e25,-1.779,29.31697,1,0.008845084660096033,0.07058823529411765,0.10244580204488567
172,ac93969e-7757-40e2-ac6f-f80abee7b635,-1.73758,29.58717,1,0.00960323477381855,0.047058823529411764,0.046427106755476365
173,35c7cdca-9f9f-40a0-b619-79de5feb4b6e,-1.77269,30.297,1,0.00960323477381855,0.08235294117647059,0.054859078245867096
174,1a18d271-f7f0-4570-9c0d-1b535c5a215b,-1.97592,29.41856,1,0.009855951478392721,0.058823529411764705,0.04986353287231485
175,81022bf6-2006-4f94-83e0-b025bdb5cf53,-2.22519,29.79342,1,0.009982309830679808,0.15294117647058825,0.139260107759535
176,18d76040-4d76-4366-81bf-1cc06cd3189e,-1.66322,29.61147,1,0.010740459944402325,0.08235294117647059,0.05455503231371883
177,935a8493-e8b6-4bed-be5c-5b861a1fac54,-1.67267,29.49281,1,0.01124589335355067,0.047058823529411764,0.04733217371628979
178,6485a679-3bd6-49a6-bfd0-754686eebe41,-2.17789,30.66397,1,0.011751326762699014,0.03529411764705882,0.03300312530934906
179,4ebf18b3-0e6c-47dc-ac66-f85f8f2cc077,-2.01078,29.49094,1,0.012635835228708618,0.03529411764705882,0.04771399884038296
180,6eb83afd-ae50-4765-a74e-a29b05033683,-1.86581,30.59692,1,0.015163002274450341,0.011764705882352941,0.016262921952116302
181,b74dc591-2ad4-4062-91dc-d0e86d00a5a7,-1.68258,29.79269,1,0.015415718979024514,0.023529411764705882,0.035888026246941866
182,48d95cef-e8ea-47bb-8e3c-daee3095c81c,-1.77072,29.372,1,0.0155420773313116,0.058823529411764705,0.03990072546773578
183,1c67749d-34b9-487e-ad2a-d0d45b83acb7,-1.83439,29.34903,1,0.016679302501895376,0.047058823529411764,0.05574646811760214
184,0c195bf6-2f14-445d-b23c-0c2e645420c6,-1.93997,30.25631,1,0.019080111195350014,0.08235294117647059,0.06080918642965226
185,1865848c-b1a9-431b-a038-82e808d01c00,-2.52883,29.57692,1,0.0200909780136467,0.08235294117647059,0.037510783024337815
186,37bcb15f-4010-4440-bdbc-69cc4c520693,-2.34239,29.75711,1,0.021859994945665907,0.3058823529411765,0.13477012713362466
187,98d05145-1c35-48bf-a75c-027704e2e46b,-1.98122,30.09156,1,0.021859994945665907,0.7411764705882353,0.6306549007961761
188,ae3f8206-f226-4e5e-a23f-9c53d9e68aa1,-1.7805,30.43569,1,0.022870861763962597,0.023529411764705882,0.059547042269455404
189,e1928910-9ba5-4741-8b4c-1e7df4b53332,-2.00147,30.09342,1,0.02312357846853677,0.4117647058823529,0.4057139422736979
190,5ecb2b0a-e09d-49a5-958f-54a5d0da26c8,-1.77039,29.34358,1,0.023881728582259287,0.058823529411764705,0.06605928188593328
191,244c312e-0663-4c8d-9734-690371b3383b,-1.60606,30.08261,1,0.023881728582259287,0.10588235294117647,0.12043400789105256
192,ac419196-fe7d-44b4-9165-6812fddd0599,-1.77739,30.13433,1,0.023881728582259287,0.09411764705882353,0.0634360018667006
193,dfa9ef42-d9c8-4599-bc46-c2aa3995fb44,-1.8885,29.30469,1,0.02451352034369472,0.10588235294117647,0.08394496061544553
194,19778c26-197d-4961-a2c5-851587b8f978,-1.64997,29.54019,1,0.024639878695981804,0.09411764705882353,0.06352792272990822
195,8333b453-5733-4e3e-ad2a-0d939818a7d9,-1.79364,30.03928,1,0.02779883750315896,0.08235294117647059,0.0640794479091539
196,088c319f-02b7-4ddc-8d79-9e421134ea60,-2.38519,29.71578,1,0.028304270912307302,0.07058823529411765,0.039098185623576996
197,019ed9cc-a10a-4f8a-bb8d-debadef07657,-2.34972,29.69122,1,0.02880970432145565,0.08235294117647059,0.04246743880191761
198,6437a87f-8d01-46c7-9709-fe9d299054f6,-2.12494,29.83972,1,0.03007328784432651,0.047058823529411764,0.05694851017493247
199,3e089ea6-ff99-46f1-9d51-936322088c43,-2.00025,29.35794,1,0.030199646196613597,0.058823529411764705,0.03368899636559049
200,f5d89137-9d8d-4f3e-91aa-2bdf58e76a54,-1.6035,29.60625,1,0.03449583017437453,0.09411764705882353,0.0474877321001796
201,936733cb-5a26-46ef-8bd3-28492ad9fe85,-1.83842,29.63128,1,0.03575941369724539,0.07058823529411765,0.0732078967092331
202,bb484402-6454-4f03-9fe8-44318a36dfd8,-1.75167,29.55214,1,0.037402072276977505,0.10588235294117647,0.08003125309349059
203,6a67842a-463f-4128-b8a9-554878a31f8a,-1.64556,30.13689,1,0.03803386403841294,0.047058823529411764,0.04296946813174381
204,a2021d0b-abc1-41d1-a136-f512cb7858ac,-1.96331,29.65572,1,0.03816022239070003,0.023529411764705882,0.04183813443072702
205,6fb8c4cd-2858-4fa2-97a3-40d837ce1ccc,-2.14322,30.37936,1,0.04056103108415466,0.011764705882352941,0.04231541583584348
206,8e018dc8-009f-44e6-ab32-cc369fb97562,-2.11058,30.58969,1,0.04081374778872884,0.011764705882352941,0.03386223183855868
207,2481ce46-ab7d-42f3-ae95-febca2ab10ff,-2.27978,30.40633,1,0.041192822845590095,0.011764705882352941,0.02993084722752535
208,270a787b-3347-4ae3-91a8-c65ccd205861,-1.98208,30.44875,1,0.0429618397776093,0.07058823529411765,0.06862245980229943
209,6da124be-86c1-4911-b373-5397f2bf98c4,-1.48817,29.704,1,0.04675259034622189,0.047058823529411764,0.06153041166405046
210,e06e4625-5233-4b44-9c9d-a439ecda645e,-2.28556,29.17447,1,0.047637098812231486,0.09411764705882353,0.06246022654957363
211,392fd6f9-c430-489d-9f0f-9d759d03ae86,-2.19753,29.26072,1,0.050037907505686124,0.10588235294117647,0.04237551793871
212,efcfc510-003e-4ba7-8dd9-cd0b23992bf6,-2.07264,29.43117,1,0.05016426585797321,0.12941176470588237,0.07781808154087651
213,6c89a2b1-c355-4657-9fd0-26a2e643d2f0,-1.66606,29.62511,1,0.05066969926712156,0.12941176470588237,0.06463804392403094
214,61f6ae8d-2244-4cfd-9349-d8c59f1e6099,-1.96842,30.32261,1,0.0511751326762699,0.03529411764705882,0.04992009955736569
215,2c6948c6-5c1c-4360-87b4-2da651015720,-2.06589,30.42044,1,0.05155420773313116,0.011764705882352941,0.04017648805735862
216,11c0c608-4de4-4ced-b585-fe624a018fe2,-1.89581,30.27444,1,0.052312357846853674,0.03529411764705882,0.0762200726881903
217,f117443f-2318-4093-a544-fbd6c949e789,-2.05117,30.31028,1,0.05344958301743745,0.023529411764705882,0.03276625231569867
218,609c9e26-3bbd-49bf-9e6e-c46a38f8bfa1,-2.03625,30.39386,1,0.05344958301743745,0.058823529411764705,0.05416613635399432
219,b65a219a-9ecc-4f37-90d4-ee630d516fbd,-2.04961,29.39758,1,0.053955016426585796,0.17647058823529413,0.09126681091171354
220,2153817a-3e8b-4e78-8a55-d43efa9f5ad2,-2.64178,29.62231,1,0.054334091483447054,0.07058823529411765,0.04277855556969723
221,3aeb02b2-4e7c-49e0-86ee-7e0a982b0c40,-1.90128,30.3145,1,0.05496588324488249,0.03529411764705882,0.05486614908149845
222,e455e090-0d0e-4995-bc91-36a5160f5a77,-2.19369,29.79658,1,0.05547131665403083,0.011764705882352941,0.04421747062067795
223,55b1f3c0-2634-4b2a-99bb-452c717a1152,-1.58458,30.10442,1,0.05547131665403083,0.047058823529411764,0.06565624425494605
224,e561e508-639a-4993-8201-65b89c7c5010,-1.87008,30.45275,1,0.056229466767753346,0.09411764705882353,0.03788200189498395
225,510a442f-a771-4ed9-aa8b-521d901d9b1b,-1.76275,30.12431,1,0.05686125852918878,0.07058823529411765,0.053363596509835534
226,f753b8c3-283a-4a90-a2c2-1d45a4746b36,-1.60267,29.91561,1,0.05964114227950468,0.03529411764705882,0.05768387708059339
227,6ad23e74-dae3-46a9-ac4c-950d344964c8,-2.73697,29.65547,1,0.060525650745514276,0.047058823529411764,0.044404847764908856
228,b6cb5d2d-5fbf-468d-b6e9-4357222d084b,-2.71917,29.70997,1,0.06166287591609806,0.07058823529411765,0.042866941015089165
229,827cb8f3-faba-4afd-8c69-3fdf643e5e2e,-2.28881,29.75194,1,0.06507455142784938,0.09411764705882353,0.09978009701186487
230,699624f0-3d77-4cff-8689-718eafbd075e,-1.75733,30.02408,1,0.06595905989385899,0.058823529411764705,0.036778951536492584
231,fd5876aa-a02f-4dc4-8bfa-0281ba74045a,-1.98222,30.04803,1,0.07063431892848117,0.5294117647058824,0.6518780139436878
232,eed807f1-db4b-4860-8ac1-756f22cda078,-2.56867,29.56333,1,0.07543593631539044,0.047058823529411764,0.022347376012897203
233,c9b96573-b56f-40c5-b4bb-ebb11dac9cc3,-2.69642,29.56889,1,0.0785948951225676,0.08235294117647059,0.027293425537029965
234,81e249b0-d1da-4f24-8b86-0901a608c438,-1.65039,29.93636,1,0.08554460449835734,0.09411764705882353,0.06176021382206949
235,a68d2912-aac8-4446-9acb-3c8695e55d79,-1.60192,30.51772,1,0.09337882234015668,0.023529411764705882,0.031390974785400136
236,0b3bf406-ce78-420c-9609-057c07b898c3,-1.44417,30.29481,1,0.11144806671721001,0.03529411764705882,0.0430967431731082
237,5516e10e-a94d-4d82-9c09-008a1e47dfcc,-2.13281,30.13222,1,0.11233257518321961,0.0,0.028230311258184492
238,7021e3fa-b445-43d3-949e-6d7c09063d00,-1.50222,30.40417,1,0.11233257518321961,0.023529411764705882,0.018115480887531288
239,db474824-4627-4c0c-acd4-f2d7205987ed,-1.31919,30.22186,1,0.12370482688905737,0.03529411764705882,0.04733217371628979
240,8e50a123-1b39-4678-bf47-872a8833a7b3,-1.69781,30.22939,1,0.12496841041192823,0.08235294117647059,0.03218290837611189
241,daef4428-6ef9-4cc9-ae12-fdbb60462d66,-1.25708,30.41708,1,0.12913823603740207,0.011764705882352941,0.07460085132861001
242,5d3f9bf6-85b7-4335-9c5b-1898b9bc287c,-1.75333,30.25167,1,0.008466009603234775,0.03529411764705882,0.04335482867365265
243,6e067a46-b501-4c7b-9dd9-eaa6fb8a932b,-2.18964,29.62778,1,0.001516300227445034,0.047058823529411764,0.030065193104521094
244,9aec6fb6-c03e-458c-ae6e-772de5baec86,-1.51553,29.942,0,0.030578721253474855,0.058823529411764705,0.03551680737629573
245,e996f37c-e251-4a1b-90bd-e6f0910d58fa,-1.37194,29.85028,0,0.0310841546626232,0.023529411764705882,0.042849263926010774
246,b9fee804-fb80-415f-ab1b-3b4d1414b368,-2.07239,29.94897,0,0.032979529946929494,0.07058823529411765,0.05301712556389914
247,e5fc6234-be9f-4356-a556-04f32d7f18b2,-2.09683,29.91253,0,0.03335860500379075,0.011764705882352941,0.062382447357628726
248,97b4bc21-3072-460e-b834-9e3b954768b8,-1.97797,30.08561,1,0.0008845084660096032,0.8,0.6647398639571225
249,f5b05b35-4c8c-400e-a3e8-70e59512d26e,-1.95972,30.13978,1,0.002906242102602982,0.4823529411764706,0.4615523312545077
250,912fcc52-af2a-4902-aad4-3016e26efea6,-2.25203,29.67719,1,0.004043467273186757,0.12941176470588237,0.08559600073536691
251,50a97911-2db2-400c-8536-c048c4806a01,-2.42894,29.77828,1,0.0044225423300480165,0.058823529411764705,0.045840227398073904
252,cc14680e-479d-451d-b9ed-bde6b9a63460,-2.62469,29.74117,1,0.004675259034622188,0.24705882352941178,0.2010238569994202
253,fb0e6137-647d-47d2-94a7-e981aa4b15d2,-1.10269,30.42147,1,0.004801617386909275,0.12941176470588237,0.06590018808422779
254,5e653a5a-0e06-4c7a-8ac9-9e028b79dac0,-2.51436,29.76942,1,0.005433409148344706,0.058823529411764705,0.05884349412413559
255,86f84a79-b070-43a0-a519-946fe4c936d3,-2.21806,29.88364,1,0.006065200909780136,0.03529411764705882,0.049534739015456845
256,2ded8da7-024d-4222-9887-9c7048ccc022,-2.52464,29.54314,1,0.006444275966641395,0.047058823529411764,0.03894262723968719
257,f624a58f-9f21-4cde-ba3d-4919b427a18d,-2.54803,29.61283,1,0.00796057619408643,0.03529411764705882,0.032730898137541896
258,914f2546-8cae-4927-8f44-5963c039aae3,-1.69231,29.76106,1,0.010487743239828153,0.08235294117647059,0.03359354008456719
259,71045fdf-a757-4190-bc19-c4a8c97989b2,-1.98147,30.11814,1,0.011751326762699014,0.5647058823529412,0.46122353739764965
260,251f2c80-30c5-4344-b89a-d3d256f875f9,-2.27122,29.70142,1,0.01225676017184736,0.058823529411764705,0.09145418805594445
261,735fa8bf-d16f-4117-84fc-f7ff6eb5e8e4,-1.68653,29.62892,1,0.015289360626737428,0.1411764705882353,0.0741341761769406
262,9f1477f9-548c-4af0-a13d-105aba7c97d1,-1.61483,29.99453,1,0.017058377558756634,0.07058823529411765,0.06435874591659242
263,68cba9cd-3fbc-43cd-8ec2-2e19d247a39c,-1.60025,29.96258,1,0.019080111195350014,0.047058823529411764,0.05344844653741179
264,5d697484-e0e2-410d-8b9a-6b69e9602151,-2.15092,29.50997,1,0.020596411422795047,0.15294117647058825,0.030330349440696902
265,e6f6a144-f345-44fd-af78-6126868efcac,-2.437,29.84936,1,0.021859994945665907,0.03529411764705882,0.05674699135943886
266,fd6b1647-49e5-4f96-8f60-6a4a0f198116,-1.9125,30.14767,1,0.02476623704826889,0.058823529411764705,0.20843409274108013
267,f711ea1e-a3ce-435e-99ec-3e873e1db0c1,-1.77761,30.17594,1,0.026029820571139752,0.07058823529411765,0.04470889369705712
268,6c11c6e7-7cd2-49b9-b7aa-f3c805ed8af2,-2.24325,29.69067,1,0.026282537275713926,0.1411764705882353,0.08167168695996493
269,8295781a-f074-4143-8b41-ab943db05f9f,-1.75778,29.86758,1,0.02868334596916856,0.07058823529411765,0.036580968138814646
270,d27860fc-c9b4-4766-855b-13ecd7c698d4,-2.09608,29.37619,1,0.03007328784432651,0.08235294117647059,0.04941807022753949
271,dfbecf5b-36d9-4bb1-bce7-c614de463425,-2.44294,29.80825,1,0.030452362901187767,0.023529411764705882,0.046271548371586556
272,745a28e9-4ee9-43a6-921a-914d9d7e617c,-2.31847,29.61589,1,0.03070507960576194,0.011764705882352941,0.03192835829338311
273,531aacbc-fa66-4ffc-bbad-2745eae78dbf,-1.71864,29.26864,1,0.03184230477634572,0.09411764705882353,0.20960431603806937
274,5d940248-fded-4103-a937-455ed36afcb5,-2.23625,29.317,1,0.032853171594642405,0.10588235294117647,0.0258297625613395
275,075dd4cf-db83-46f1-8c2d-8095baec7e5c,-2.39719,29.80144,1,0.03651756381096791,0.08235294117647059,0.05685658931172486
276,d292c931-8a33-4185-8520-ccf01cfb188b,-1.98397,30.07714,1,0.03651756381096791,0.6941176470588235,0.669852078118592
277,c764e517-d146-4f8e-b21e-1d497ececb12,-1.71078,29.84192,1,0.0384129390952742,0.10588235294117647,0.0323844271916055
278,53bb421b-e215-4030-9cbd-a1b87fc82b06,-2.51008,29.75706,1,0.03904473085670963,0.058823529411764705,0.054003507134473154
279,83db49bb-15a1-488d-b541-04dba9fbff19,-2.51861,29.49594,1,0.04788981551680566,0.08235294117647059,0.05471766153324
280,c2207b31-af37-4554-a4de-18b719360d56,-2.41956,29.68633,1,0.05054334091483447,0.03529411764705882,0.046271548371586556
281,524b9a7f-4700-48ad-b80a-611409076edb,-2.34875,29.74567,1,0.05471316654030831,0.35294117647058826,0.1266669495000919
282,e23cf50f-43f2-4891-9b19-e896a3ed91f7,-2.20656,29.70183,1,0.05698761688147586,0.07058823529411765,0.044447272778696985
283,7705b7f6-177a-4914-9e6c-e2877ea8c979,-2.50461,29.70822,1,0.063052817791256,0.058823529411764705,0.050680214387736344
284,56532950-eeed-48cd-bb5c-4272a83eb6bd,-2.30808,29.58094,1,0.06532726813242355,0.047058823529411764,0.032525843904232604
285,f06defac-d1ec-424a-9036-2246b4c108f1,-2.37236,29.67575,1,0.07556229466767754,0.047058823529411764,0.04016234638609591
286,a43f5e11-fcb6-40f9-ad59-373308bd6d39,-1.79158,30.12494,1,0.08668182966894111,0.058823529411764705,0.06655777579794381
287,628ae4f0-c6ea-498a-b1ed-092f56af7754,-1.75967,29.74211,1,0.08908263836239576,0.03529411764705882,0.03531882397861779
288,17bd79b1-94b0-4f35-a796-2c6ae4ba5e0a,-2.28931,29.93217,1,0.08920899671468284,0.09411764705882353,0.058793998274716104
289,a602ed70-f7f9-4099-9f1d-aa9e2832d8be,-2.10508,29.65439,1,0.09059893858984079,0.07058823529411765,0.04162600936178638
290,a7d61bd7-27e0-45b9-bbd6-b7865c779123,-1.67964,29.64625,1,0.0922415971695729,0.11764705882352941,0.07412710534130923
291,f33c1c72-3171-4c46-8e46-504f1c3f4ab9,-2.30231,29.94269,1,0.09438968915845337,0.09411764705882353,0.0518327605956472
292,b27cac46-9748-427a-9f75-a875f07a954f,-1.54517,29.65953,1,0.09628506444275967,0.09411764705882353,0.08784806188395344
293,dac4b2a2-b734-43ad-a462-95644845fdcb,-2.25953,29.91067,1,0.10740459944402325,0.058823529411764705,0.04947463691259033
294,77f3a45d-7233-484c-ac33-eec8ab1ef154,-2.30261,29.76167,1,0.10942633308061663,0.10588235294117647,0.08999406049806966
295,de812f30-949d-4cd6-ae81-52dc9722923a,-2.10389,30.0925,1,0.11144806671721001,0.07058823529411765,0.03892141473279312
296,5a845765-166b-4162-ae34-7fff5ec122ee,-1.87647,29.68072,1,0.1115744250694971,0.058823529411764705,0.04069265905844753
297,f596bb6b-66af-44cb-b6bb-ab26e2904013,-1.84628,29.67908,1,0.11207985847864543,0.1411764705882353,0.04696802568127501
298,f33ffc94-8414-44b6-9732-00c6c8a6ae10,-2.41475,29.73681,1,0.14190042961839777,0.058823529411764705,0.03976637959074003
299,78a783fa-235e-4c0e-b166-b2759d681423,-2.36747,29.38144,1,0.011119535001263583,0.03529411764705882,0.023238301302447924
300,bd362c26-d47c-403b-9318-3b3d2d91b003,-2.40847,29.48153,1,0.0016426585797321203,0.023529411764705882,0.025805014636629757
301,806d221c-4517-4ff2-8017-0d1f7f003cb2,-2.34861,29.94,1,0.009476876421531463,0.011764705882352941,0.031991995814065304
302,19e3f874-6cb8-41e2-b30f-96eff7c28663,-1.82031,30.00517,1,0.009729593126105636,0.023529411764705882,0.04057952568834585
303,c16f3864-9e81-4bb6-9216-14c02c4e89c3,-2.07353,29.38553,1,0.014531210513014911,0.10588235294117647,0.05695204559274815
304,3bb8dd24-02d6-49c5-9b9b-7a84997acf64,-2.47197,29.44953,1,0.019964619661359616,0.09411764705882353,0.05330702982478469
305,ee7e2be3-d52f-4a72-9a74-70211aa65566,-1.75842,30.18558,1,0.02249178670710134,0.058823529411764705,0.03987951296084171
306,b33a88e3-be4b-4563-b491-87aa2be490ab,-2.49606,29.72867,1,0.022744503411675512,0.058823529411764705,0.05064132479176389
307,8559ea21-4fd7-43af-9bd2-30f371bdbaaa,-1.46542,29.80956,1,0.028304270912307302,0.058823529411764705,0.029071740698315727
308,fc600c19-71df-4bbf-88b1-d6d32bf35bc0,-1.57244,29.94133,1,0.02843062926459439,0.023529411764705882,0.04465586242982195
309,58257254-6a48-4a18-b9b4-756fa99b91d1,-1.56681,29.89178,1,0.02868334596916856,0.047058823529411764,0.032589481424914794
310,0ecb4bfe-9b76-44bd-bc8d-e31f0e8eaae9,-1.40706,29.73625,1,0.029062421026029822,0.09411764705882353,0.1018129622558794
311,b5a1b157-fff8-4fb3-9950-4234aba76a4b,-2.62986,29.75617,1,0.030199646196613597,0.17647058823529413,0.17888153521983227
312,6f7fef11-4e30-4f53-8410-04d365bf9734,-1.97128,29.99506,1,0.03171594642405863,0.17647058823529413,0.12122240606394864
313,38205eba-cdfc-4d87-9814-91db8203085a,-1.91936,29.89822,1,0.032600454890068235,0.07058823529411765,0.06258396617312234
314,455a4606-2ca8-4bf2-9564-f343b56afb17,-2.16661,29.95794,1,0.03361132170836492,0.023529411764705882,0.04451444571719486
315,1ea40ebf-9762-4813-90cb-38ff2753c0a8,-1.92025,29.84844,1,0.034622188526661615,0.07058823529411765,0.04916705556262639
316,f59c5826-f60a-4e03-810b-e0e133e081ea,-1.73258,30.02461,1,0.04030831437958049,0.03529411764705882,0.030934905887177747
317,f59c34a8-d9ce-4a29-9195-b8e5d2e37bad,-2.19281,30.50944,1,0.04094010614101592,0.023529411764705882,0.05674699135943886
318,a8d69518-0867-49d6-b630-a15c71e2527e,-2.51264,29.90617,1,0.04435178165276725,0.03529411764705882,0.048707451246588325
319,68455af1-431a-4fc1-a8f5-92f9026bf99c,-1.53819,29.72103,1,0.04523629011877685,0.07058823529411765,0.06223749522718595
320,db0ab0c8-0d93-4685-bb89-2cc88d15ff19,-1.98856,30.01056,1,0.07189790245135204,0.09411764705882353,0.10016899297158938
321,9ca514a0-ec54-48a0-b796-b1fafa07c007,-2.18444,30.02511,1,0.09337882234015668,0.03529411764705882,0.037291587119765816
322,8e7d333c-8e87-4387-a76a-cfc4234c887c,-1.84697,29.6875,1,0.11410159211523882,0.1411764705882353,0.0398971900499201
323,255e105a-d67e-4dbd-8044-c2e836b790a7,-1.63011,30.03414,1,0.12105130149102855,0.047058823529411764,0.06860478271322105
324,816f63a9-6409-4902-abf8-9f0ed4865ab0,-2.31236,29.92469,1,0.21544099064948194,0.08235294117647059,0.056594968393364725
325,e5dde605-5090-4ada-8bbd-2dc6d54ff196,-1.45694,30.08811,1,0.004169825625473844,0.03529411764705882,0.02457822465458968
326,2ff8b240-61d7-41f1-91f0-f1542a6bbbe7,-1.66383,29.31581,1,0.010993176648976498,0.047058823529411764,0.11084241935711962
327,f81d6d2b-db72-4b2a-a2ee-1efb51c58b1a,-2.25453,29.83311,1,0.011624968410411928,0.08235294117647059,0.05098779573770028
328,4d8b8183-0180-43ab-a6c4-5ae735239f56,-2.39556,29.44839,1,0.011751326762699014,0.047058823529411764,0.02825859460070991
329,3e6079a0-effc-4485-b136-ba59c1804263,-2.13072,29.65639,1,0.012004043467273186,0.058823529411764705,0.04304724732368871
330,44a5c706-60ee-4411-a208-fc2ef1fecee4,-2.25747,29.69072,1,0.017690169320192066,0.15294117647058825,0.08901121434531133
331,d6921e99-cb79-45ac-bf5c-276a8bd335d0,-1.46344,29.83867,1,0.027925195855446044,0.10588235294117647,0.051245881238244737
332,3183b5b3-c395-44ef-a218-dafa49dbb500,-1.60433,29.86117,1,0.029188779378316907,0.08235294117647059,0.03445264661377682
333,adf3b8b8-9f71-4f25-85e0-00d9831e6a40,-1.38436,29.77844,1,0.02969421278746525,0.08235294117647059,0.050068587105624146
334,75a197de-a883-4248-bd15-49b877730357,-2.07186,29.93717,1,0.032979529946929494,0.047058823529411764,0.056252032865244016
335,74c5a6cd-1b04-46f4-800c-29a61ae52c03,-2.04842,29.89786,1,0.03335860500379075,0.03529411764705882,0.06149152206807801
336,f72b7b38-5d69-4fe7-b22b-16d2626c3f89,-2.142,29.97322,1,0.03373768006065201,0.03529411764705882,0.043001286892084906
337,10973494-cbd5-4243-afac-57dc480a027d,-2.25747,30.53689,1,0.04043467273186758,0.0,0.037468358010549686
338,a0cb74f1-f227-4e78-98ec-ea2054919ef9,-2.15264,30.53619,1,0.04068738943644175,0.12941176470588237,0.09743611500007071
339,6398b0e9-aaee-4e43-97d9-b8dee6e48fe3,-2.24797,29.55306,1,0.04283548142532222,0.03529411764705882,0.02901163859544921
340,db4c62a9-21ee-431d-9b76-61796e1ca599,-2.55556,29.70481,1,0.04409906494819307,0.07058823529411765,0.06301882256445067
341,09804103-aab7-4abe-ad6a-b47c2d37bd91,-2.42639,29.92306,1,0.04637351528936063,0.023529411764705882,0.04879230127416458
342,bf23f295-4d9d-4c3b-a56c-87ca8977d1c7,-1.57544,29.74597,1,0.0466262319939348,0.058823529411764705,0.06261224951564776
343,6f318808-f87b-441a-95b9-e91713248727,-2.38875,29.82669,1,0.04915339903967652,0.10588235294117647,0.050164043386647435
344,318fa348-1510-4e1a-90a6-2c6aff904ccf,-1.86242,29.92931,1,0.05496588324488249,0.047058823529411764,0.04850593243109471
345,2e1240c6-d0cd-43e1-9037-f2c5e6c756fb,-2.00361,30.43036,1,0.05686125852918878,0.03529411764705882,0.04211036160253419
346,f56e9eed-895c-4aa1-956a-98729a1e8a90,-2.06964,29.75481,1,0.09502148091988881,0.43529411764705883,0.2122700210710902
347,5403ab06-f9f9-4e6d-8738-6a4fd7c7ce68,-1.75331,29.70853,1,0.09628506444275967,0.058823529411764705,0.03945172740514474
348,966f9791-0a31-4085-97bc-30727b2fb9bd,-2.02583,29.64808,1,0.09729593126105636,0.047058823529411764,0.02851314468343869
349,ca925a6d-7871-411d-9e56-1bc3e8b29cc9,-2.05228,29.69272,1,0.10778367450088451,0.07058823529411765,0.03170916238881111
350,f0a21e69-0303-4323-abab-bb7681bc6e55,-1.62983,30.05486,1,0.11953500126358352,0.047058823529411764,0.0633264039144146
351,6e27a230-2980-4c35-9d7e-b4e2d8e1d0c0,-2.087,30.88944,1,0.010993176648976498,0.011764705882352941,0.0015449775854510486
352,2ef04948-926e-47ef-a0a5-dd052acca004,-2.22447,30.77064,1,0.02868334596916856,0.011764705882352941,0.028711128081116626
353,a705bc84-7741-4c2d-92a7-8fe59a03a37a,-2.79556,29.55061,1,0.03879201415213546,0.047058823529411764,0.035053667642441985
354,e75f3cf5-5f95-42f1-ad1f-929ae7aeed0f,-2.78336,29.60114,1,0.09211523881728582,0.03529411764705882,0.04240733669905109
355,713d4b9e-e6c6-4747-9be2-cff3fdad02da,-2.76517,29.63864,1,0.10285569876168815,0.03529411764705882,0.048954930493685746
356,cfa749c6-a098-4d1b-8745-fd4a17e239c9,-1.95972,30.13978,0,0.02211271165024008,0.4823529411764706,0.4615523312545077
357,21d10827-3a8b-43e2-9351-4444be98f163,-2.05522,29.679,0,0.024008086934546372,0.08235294117647059,0.03177633532730898
358,05d6a2bb-4ff1-4ce7-9bb0-77de6591a427,-1.64347,29.46281,0,0.02413444528683346,0.08235294117647059,0.06807093462305375
359,13f15d5b-c83e-463b-9774-9379f2340502,-1.51586,29.80711,0,0.024260803639120546,0.07058823529411765,0.043475032879385686
360,b938e0b7-d4fb-4aeb-8bc0-30fe3256da99,-1.71864,29.26864,0,0.025018953752843062,0.09411764705882353,0.20960431603806937
361,f591ddd4-81e4-4878-9fd8-1a58c885de87,-1.87686,29.61722,0,0.028051554207733132,0.08235294117647059,0.06438349384130217
362,c6e47d0f-5eff-4909-aa61-b88b48538e98,-1.46736,29.87769,0,0.029188779378316907,0.023529411764705882,0.031044503839463746
363,16fd3a11-37ad-469f-a96c-e03688973be5,-2.51861,29.49594,0,0.03007328784432651,0.08235294117647059,0.05470351986197729
364,4d5073a4-449a-46b1-8d35-5481c9972483,-1.37194,29.85028,0,0.030326004548900682,0.023529411764705882,0.042849263926010774
365,052f28bf-a929-401c-9be4-7ef5d7404d6e,-1.51586,29.80711,0,0.030326004548900682,0.07058823529411765,0.043475032879385686
366,15c5c1ed-28ad-4d9b-ab97-f33763ac0055,-2.1896,29.62772,0,0.032979529946929494,0.047058823529411764,0.03004044517981135
367,2476eff1-054b-4645-87c8-0f62e2ddb692,-2.09128,29.97689,0,0.03348496335607783,0.03529411764705882,0.05030899551709021
368,cc2c8fd6-cdbb-49a0-a57d-6b71bc327f96,-1.99564,29.88897,0,0.0347485468789487,0.10588235294117647,0.06414662084765177
369,18acfd91-9704-4f6b-aa82-3bbd5aa3f15e,-1.96086,29.85747,0,0.0347485468789487,0.047058823529411764,0.042856334761642134
370,d8682461-c6d7-4775-ac5c-0351aaf325f3,-1.90056,29.49886,0,0.035127621935809955,0.047058823529411764,0.048926647151160324
371,398d5e1c-c8be-4152-827f-562caf4c581d,-2.06347,29.61839,0,0.03538033864038413,0.047058823529411764,0.045684669014184096
372,89cdd96b-6698-448f-8449-1139ef9086ff,-2.07578,29.61817,0,0.03550669699267121,0.09411764705882353,0.047954407251849025
373,5b06c504-cafc-4cb8-a490-d0aeb854430a,-1.87647,29.68072,0,0.0356330553449583,0.058823529411764705,0.04070680072971024
374,79d84a90-ac1d-4063-815e-caee9512ecca,-2.09139,29.45731,0,0.0401819560272934,0.11764705882352941,0.032868779432353314
375,94b7fea1-675d-48d1-964a-b46b844e5847,-1.84228,29.70761,0,0.04043467273186758,0.09411764705882353,0.03166673737502298
376,0e956852-34f9-4246-b7a9-83306d0ef338,-1.75967,29.74211,0,0.041192822845590095,0.03529411764705882,0.03531882397861779
377,16f01821-d7e6-4eda-92a4-3eef9cc8910d,-2.30489,29.43189,0,0.041319181197877176,0.058823529411764705,0.029881351378105863
378,a32c4f04-fab7-47bb-899e-7e37c986d1c3,-2.33514,29.44386,0,0.04485721506191559,0.07058823529411765,0.03430769448333404
379,22520b99-63cf-400c-bd66-a42428af517d,-1.6025,29.52231,0,0.0466262319939348,0.09411764705882353,0.08102824091751164
380,01f71e9b-5e30-49f1-9da1-d0e5228256b8,-2.39719,29.80144,0,0.049406115744250696,0.08235294117647059,0.05685658931172486
381,5a231140-0658-438a-a0ba-f0230bc0e259,-2.52464,29.54314,0,0.053702299722011626,0.047058823529411764,0.03894262723968719
382,1bc13b22-b761-4a61-a048-a13a0d888f07,-2.23625,29.317,0,0.05673490017690169,0.10588235294117647,0.0258297625613395
383,fdaa4240-0762-4851-94ce-58144fe473ed,-1.67081,29.55547,0,0.057998483699772556,0.07058823529411765,0.0533529902563885
384,e6ce7b67-d2c1-4dfd-a638-594fb92a2998,-2.67936,29.78678,0,0.060272934040940106,0.058823529411764705,0.03916889397989054
385,69bacc3d-553d-4b5c-b7ca-5bbf49be73fd,-1.66625,29.93511,0,0.06153651756381097,0.058823529411764705,0.05941976722809102
386,43a0c008-d327-40d1-8d1d-afc63e793d64,-2.39989,29.40111,0,0.06166287591609806,0.03529411764705882,0.034838007155685656
387,a077851e-6d59-4d8c-bfe6-e2d8ab9e846c,-2.30808,29.58094,0,0.06583270154157189,0.047058823529411764,0.03253998557549531
388,b454b59e-058b-425f-a924-0033cecb0a2b,-1.85106,29.55222,0,0.06583270154157189,0.09411764705882353,0.049357968124672975
389,7515e65f-dd53-41b0-b237-8ad341fc14a5,-2.15475,29.53219,0,0.06583270154157189,0.15294117647058825,0.04130075092274405
390,564065c9-ae21-4f63-b271-255b7df8eb14,-2.14156,29.4845,0,0.06583270154157189,0.058823529411764705,0.024581760072405357
391,cdd1f874-ebda-4154-9b28-fb8e3f8db3e5,-2.17908,29.58536,0,0.06583270154157189,0.09411764705882353,0.04318159320068446
392,28b57a25-5451-48cd-bb3e-ec711b029043,-1.75022,29.32997,0,0.06583270154157189,0.09411764705882353,0.08194391413177209
393,0c7c38e7-5455-4e6d-9138-ffe0f98b6bbc,-2.09608,29.37619,0,0.06583270154157189,0.08235294117647059,0.04941807022753949
394,ca1e8c42-4439-40ee-b79d-0e30f87fd732,-2.25203,29.67719,0,0.06583270154157189,0.12941176470588237,0.08559600073536691
395,d7549644-ec1a-4f2c-ad03-fcfc3ba991a4,-2.17225,29.57031,0,0.06583270154157189,0.1411764705882353,0.04244269087720787
396,6994026f-b082-4620-a26d-3e53159f3cfe,-1.68708,29.62622,0,0.06583270154157189,0.1411764705882353,0.0733634550931229
397,b4be5ea4-26c7-43c2-96eb-f05279d7b8b5,-2.67936,29.78678,0,0.06583270154157189,0.058823529411764705,0.03914768147299648
398,217c2ef4-de92-45ad-a511-269ead445618,-1.28936,30.33492,0,0.06583270154157189,0.07058823529411765,0.12890133355960007
399,6101ceb5-8f61-4f8b-a33b-2180999c8a59,-1.98147,30.11814,0,0.06583270154157189,0.5647058823529412,0.46122353739764965
400,c876a085-f40f-44df-b395-133352df7af9,-2.16608,29.50581,0,0.06583270154157189,0.12941176470588237,0.02555046455390098
401,7613aaf2-d1e4-4113-bf2b-b5c8f22ec34c,-2.18922,29.54981,0,0.06646449330300733,0.08235294117647059,0.04206793658874606
402,fbcbd0bc-2112-4450-849a-41f8871bfb08,-1.71078,29.84192,0,0.06646449330300733,0.10588235294117647,0.03237735635597415
403,6179d4dd-8067-48f7-9072-88b1bb8cea20,-2.05872,30.23463,0,0.06659085165529441,0.011764705882352941,0.03613197007622361
404,5a176501-82c2-43a3-bfeb-66dd874d4895,-1.876,29.33972,0,0.06835986858731362,0.07058823529411765,0.07718877716968592
405,d311ae9c-28dd-48b7-a13d-1b6f999fe149,-2.03525,30.68894,0,0.06987616881475865,0.023529411764705882,0.02256303649965353
406,e3f84b83-5da1-4cd1-95a4-cb0cacf80c86,-2.10389,30.0925,0,0.070381602223907,0.07058823529411765,0.03892141473279312
407,3c06e575-15fd-4b07-907c-8a668b24d83a,-1.97542,30.06917,0,0.07480414455395501,0.8823529411764706,0.7843253715724124
408,bb3e6120-e33d-4f20-9017-bcb716b677d2,-2.10458,29.44536,0,0.07556229466767754,0.12941176470588237,0.029814178439607993
409,7a26b4ad-4cf8-4bbc-b3af-fcdde2984cb8,-1.51408,30.07272,0,0.07808946171341925,0.047058823529411764,0.0359764116923338
410,51c5f9ef-dcb5-4bf7-8399-1b59d6e46b2c,-2.35458,30.06261,0,0.07935304523629012,0.03529411764705882,0.021106444359594415
411,a5c267f0-b3b2-4e04-8af5-a5cca425af7a,-1.71494,29.95167,0,0.08023755370229972,0.07058823529411765,0.0475973300524656
412,bbb9ca35-e932-4066-9e4c-59b5eb610c03,-2.54803,29.61283,0,0.0822592873388931,0.03529411764705882,0.032730898137541896
413,f22333e2-e01a-44b7-b8cf-2e340649d85f,-1.71667,30.08042,0,0.08440737932777356,0.07058823529411765,0.03811887488863434
414,1eec3e42-583a-4a26-b11f-1bf81952831b,-1.90547,30.20022,0,0.09818043972706596,0.023529411764705882,0.054445434361432836
415,f634611a-9886-4788-9fa1-26bbfd91da63,-1.75778,29.86758,0,0.0986858731362143,0.07058823529411765,0.036580968138814646
416,56b21c93-8cbb-40b5-9158-71ef22601925,-2.30231,29.94269,0,0.10462471569370735,0.09411764705882353,0.0518327605956472
417,2a084003-e344-4b8f-8202-84cc9ee29d03,-2.42894,29.77828,0,0.10538286580742987,0.058823529411764705,0.045840227398073904
418,1d10dd59-bc03-4e09-bab0-d9685cff05ed,-1.69231,29.76106,0,0.10677280768258782,0.08235294117647059,0.03359354008456719
419,ebfed99b-9200-4c73-8828-7e7d72cb60fc,-2.25108,29.32703,0,0.10955269143290372,0.058823529411764705,0.02858385303975224
420,fbd97c82-e2da-48e4-a16c-9336f11b26fe,-2.12575,29.93131,0,0.10993176648976498,0.09411764705882353,0.0662289819410858
421,a7bdc112-b495-406a-a74b-4b57ba814739,-1.84628,29.67908,0,0.11043719989891332,0.1411764705882353,0.04697863193472204
422,19fb61c0-246b-4185-b60b-1db52a43e44a,-1.71239,30.00908,0,0.11511245893353551,0.058823529411764705,0.035757215787761795
423,23f33c88-d911-4c21-9c07-17cb51f01e81,-2.67369,29.63008,0,0.11991407632044478,0.03529411764705882,0.04070680072971024
424,1dc76ef0-ed41-4e8a-9d35-ad7b4c920488,-1.9125,30.14767,0,0.12218852666161233,0.058823529411764705,0.20843409274108013
425,f86d27cc-e971-4a63-b1ae-0f64a5196d72,-1.67964,29.64625,0,0.13166540308314378,0.11764705882352941,0.07412710534130923
426,9542e21a-3adf-47e3-af6f-95d83f6b6caf,-1.46736,29.87769,0,0.1326762699014405,0.023529411764705882,0.031044503839463746
427,2f3b9191-8693-44d8-ba48-b9f96bba14f7,-2.33247,29.90292,0,0.1461966135961587,0.03529411764705882,0.050701426894630405
428,9d49ee1c-1d5e-4579-8468-6cc0da4058d3,-1.76344,30.14983,0,0.148091988880465,0.07058823529411765,0.04877815960290187
429,089848de-0ca8-4a74-98bc-491355926197,-1.43953,30.02361,0,0.1489764973464746,0.058823529411764705,0.04313916818689633
430,eed3a945-a9fd-4cbf-8aa0-f3e745f26536,-2.13911,29.95142,0,0.14948193075562294,0.047058823529411764,0.05806216678687087
431,25606153-0f03-4d98-8920-d0598aefd832,-1.51553,29.942,0,0.152514531210513,0.058823529411764705,0.03551680737629573
432,3167b6f0-3b38-44f3-84b8-737f4f7f88ee,-1.79158,30.12494,0,0.15403083143795804,0.058823529411764705,0.06655777579794381
433,f0c2f710-534d-4b47-b639-17ffed2510de,-2.07578,29.61817,0,0.17210007581501138,0.09411764705882353,0.047954407251849025
434,aa59cac1-0a4b-4f83-ba8a-c5635a5195e8,-2.71789,29.60175,0,0.17424816780389182,0.07058823529411765,0.03882595845176983
435,0b383d99-5322-4dae-98e5-d7acee76c084,-2.21806,29.88364,0,0.17879706848622695,0.03529411764705882,0.049534739015456845
436,b8bcb059-5f6b-45d4-bc47-b0f47002596f,-2.20656,29.70183,0,0.2058377558756634,0.07058823529411765,0.044447272778696985
437,b6925b9e-1707-4d6e-bfc0-67aa7e1fc683,-1.97128,30.11794,1,0.002906242102602982,0.7294117647058823,0.5652390649526962
438,06c0da75-8803-47e7-b489-fc4d947cc205,-2.33514,29.44386,1,0.0037907505686125853,0.07058823529411765,0.03430769448333404
439,bfa229b3-ebff-40a8-9e93-301929850b64,-2.39989,29.40111,1,0.0037907505686125853,0.03529411764705882,0.034838007155685656
440,f2b6bdeb-c40b-4b90-94e8-684647c90785,-1.76344,30.14983,1,0.00530705079605762,0.07058823529411765,0.04877815960290187
441,36fb314f-96db-4867-a16d-b76369b94d54,-1.91472,29.29969,1,0.005686125852918878,0.09411764705882353,0.06581887347446722
442,c43cafee-7ff6-47df-8f05-b370e6eda7a1,-1.67508,30.56403,1,0.005938842557493051,0.0,0.013197714705923945
443,74414eb2-1cf9-4964-8c00-553f633ba249,-2.36669,29.42911,1,0.006065200909780136,0.047058823529411764,0.03295716487774525
444,1ef4ae01-365b-4e98-9db3-0f5f1a34610c,-1.95047,29.33978,1,0.007328784432650998,0.011764705882352941,0.043701299619589046
445,2e772208-7fcc-466e-8847-abf49a9563d4,-2.25108,29.32703,1,0.007328784432650998,0.058823529411764705,0.02858385303975224
446,7190c971-c1b5-4abe-8618-4880e6a2b25c,-1.96383,30.51989,1,0.008086934546373515,0.047058823529411764,0.06309660175639557
447,89026da9-18e7-4f05-b14d-727a1ef9ecb2,-1.63883,29.61444,1,0.008718726307808946,0.10588235294117647,0.05444896977924851
448,0d56a0da-634e-4b7c-8483-30c4c26ee890,-1.98769,30.10064,1,0.008845084660096033,0.6588235294117647,0.5382072603340263
449,7b87ba8c-eacf-48ea-af71-986dd959f637,-2.52467,29.51947,1,0.009097801364670205,0.058823529411764705,0.04314977444034336
450,5a14e3b4-a61d-4101-b598-b8b8df785720,-2.08669,29.44478,1,0.009224159716957291,0.09411764705882353,0.04213864494505961
451,394ff5e0-3dd7-4bea-8a3c-1ec0edbf34fc,-1.89694,29.39264,1,0.009476876421531463,0.047058823529411764,0.04967615572808395
452,5c2ca252-e92c-4d91-b8f6-d697d96e6e1b,-2.15475,29.53219,1,0.00960323477381855,0.15294117647058825,0.04128307383366566
453,8dd71dee-db10-446f-9193-882b538ed2aa,-1.98492,30.07036,1,0.01023502653525398,0.7294117647058823,0.7008895111224245
454,ef6ca1ea-309a-4426-833a-7d65a477a64a,-2.03564,30.62458,1,0.010740459944402325,0.023529411764705882,0.031465218559529363
455,c96c93fb-32e1-490a-954e-c9897699c25f,-1.86183,29.94489,1,0.010993176648976498,0.047058823529411764,0.048926647151160324
456,46b4af21-a687-416d-bd17-d4c7d0e55c18,-1.72347,29.61622,1,0.011119535001263583,0.08235294117647059,0.05553434304866149
457,2acefb2b-d5b6-438f-a94a-02354b0e889b,-2.09139,29.45731,1,0.01124589335355067,0.11764705882352941,0.032868779432353314
458,864399d0-99d0-4f8c-a570-de4c16c66235,-1.6025,29.52231,1,0.011498610058124843,0.09411764705882353,0.08102824091751164
459,f386917e-b340-4372-b736-7057a720caed,-2.16608,29.50581,1,0.011877685114986101,0.12941176470588237,0.025543393718269625
460,e2bf38ed-6c36-4dd8-93a4-81950d1c4e5d,-1.65225,29.97014,1,0.011877685114986101,0.03529411764705882,0.0530701568311343
461,3399b81a-285d-44c9-8776-64cbc9112554,-1.64347,29.46281,1,0.012383118524134444,0.08235294117647059,0.06807093462305375
462,95abf070-3353-4d4d-a8b4-1dbdcc2b5886,-1.88425,30.64044,1,0.013014910285569876,0.0,0.015502807121745649
463,aea10c3c-aacb-49eb-9160-90000cdb9372,-1.97542,30.06917,1,0.013141268637856963,0.8823529411764706,0.7843253715724124
464,b0caf71b-f8bd-488e-a55f-ab24a25c21ae,-1.81339,29.34408,1,0.013773060399292393,0.03529411764705882,0.052568127501308105
465,8eb7dc80-7a28-4629-9303-2e4d3f45b51c,-1.66769,29.57144,1,0.01389941875157948,0.07058823529411765,0.05387269667529308
466,cb0402ec-3a13-4114-8c88-7b5377325e14,-2.00383,30.57519,1,0.014278493808440738,0.08235294117647059,0.07348365929885593
467,c6d41d46-bd57-4e44-9b10-92cc242964e5,-1.78344,30.58319,1,0.01579479403588577,0.0,0.02133978193542913
468,3021b2b3-b70a-4183-a071-5bd16d29df86,-1.43953,30.02361,1,0.017563810967904978,0.058823529411764705,0.04313916818689633
469,7a395dc7-ebc4-492c-8a92-8c5a46b07fb7,-2.14156,29.4845,1,0.019711902956785442,0.058823529411764705,0.024581760072405357
470,85cd535b-365e-409e-8207-70f98eefe29d,-1.90425,30.13306,1,0.022365428354814254,0.09411764705882353,0.22863193472204546
471,c673094c-f342-49bb-bdac-bb238cba29b3,-2.17908,29.58536,1,0.02312357846853677,0.09411764705882353,0.04318159320068446
472,c74ea3a3-a473-40bf-b747-665f29f68b12,-1.67081,29.55547,1,0.023881728582259287,0.07058823529411765,0.0533529902563885
473,b90d9c37-3f08-4f8d-8788-87b5f1ffa97b,-1.74103,29.36353,1,0.02539802880970432,0.058823529411764705,0.06659312997610058
474,fc4fc60a-e0e7-44a7-a3b5-a179e5aad067,-1.83703,30.60342,1,0.026156178923426837,0.011764705882352941,0.015976553109046426
475,c9dbbfe2-b3a0-49aa-92ca-e549b2b4f5f4,-2.28625,29.56892,1,0.02843062926459439,0.07058823529411765,0.034081427743130686
476,29459cec-4d20-4cd2-bc06-cd32ed1e869f,-2.32786,30.00333,1,0.029946929492039424,0.03529411764705882,0.035764286623393156
477,5e5875b6-640c-47b4-9b43-4e7fabdcee20,-2.25953,29.91067,1,0.03171594642405863,0.058823529411764705,0.04947463691259033
478,6b9c8a65-ecd5-4431-afc3-56ca47773246,-2.13911,29.95142,1,0.03373768006065201,0.047058823529411764,0.05806216678687087
479,23891180-a787-4b14-9f25-2cf8b38c174c,-1.99514,29.91336,1,0.034874905231235785,0.08235294117647059,0.06715526140879328
480,789e6d85-f1bd-4d60-b993-2f0f7a962607,-1.82472,29.65983,1,0.03588577204953247,0.09411764705882353,0.05962128604358463
481,73ee710a-083c-4a5d-90f9-7783c9a97170,-1.87686,29.61722,1,0.03613848875410665,0.08235294117647059,0.06438349384130217
482,aa41edbd-f444-4a7f-8fe8-7a95cbdbff3b,-1.97728,29.60103,1,0.03651756381096791,0.03529411764705882,0.04413969142873305
483,3076203d-b41d-4538-8f2a-4c8340cd63ee,-2.17225,29.57031,1,0.03664392216325499,0.1411764705882353,0.04241087211686677
484,20e9eb8e-6bd2-410a-bbbc-12c3108bfded,-1.87725,30.50336,1,0.036896638867829165,0.1411764705882353,0.12598107844385048
485,7ef99d11-882b-4e10-8fd2-07ca22fac65f,-1.85106,29.55222,1,0.036896638867829165,0.09411764705882353,0.049357968124672975
486,bc9107a7-6747-4d01-9b51-ad10e88cb09b,-2.3735,29.70183,1,0.03702299722011625,0.10588235294117647,0.04079518617510217
487,7f7760fe-a58f-40c1-9a1b-154530c7348c,-1.88636,29.58025,1,0.03702299722011625,0.07058823529411765,0.037220878763452266
488,18e97604-f045-4d7d-872f-512a7bfda053,-1.87483,29.53781,1,0.03702299722011625,0.058823529411764705,0.05777226252598532
489,146c4813-0324-4c13-b02d-b37c7c9d2d28,-1.79742,30.53569,1,0.037149355572403335,0.0,0.025723700026869176
490,ec9a78af-ca57-4878-915f-cd497a390ba5,-1.86494,29.571,1,0.03727571392469042,0.09411764705882353,0.03881181678050712
491,028a00c2-0b60-4b7a-a1a2-ac5a13757024,-1.74828,29.5515,1,0.037402072276977505,0.10588235294117647,0.07917921739991232
492,d05d817c-25f1-43df-99d3-4cc0a6e59178,-2.49475,29.47975,1,0.03816022239070003,0.09411764705882353,0.05778993961506371
493,6e6c1924-cc39-49fa-b36d-87a579b082a8,-1.93261,29.64983,1,0.03816022239070003,0.08235294117647059,0.058751573260927975
494,e71fd82a-23f5-43f1-9a45-6f5bd565776e,-1.93469,29.56844,1,0.0384129390952742,0.058823529411764705,0.043839180914400463
495,602c1b89-8c9f-4831-baa6-8346770031c2,-1.9405,29.59869,1,0.03853929744756129,0.047058823529411764,0.053869161257477406
496,2c3e87c2-ba96-4231-b360-2e7660508f9a,-2.10458,29.44536,1,0.03879201415213546,0.12941176470588237,0.029814178439607993
497,2812ca8e-8fea-4b67-82f0-1d507ceb4cbf,-2.34339,29.67097,1,0.039171089208996715,0.058823529411764705,0.04017648805735862
498,11a41fb7-1ed8-4f7c-8b27-1f83f6a2a77d,-2.17642,30.6125,1,0.04005559767500632,0.047058823529411764,0.036651676495128196
499,7deb4e05-f79b-44f3-a7fb-41ff73e3d9fb,-1.51408,30.07272,1,0.0401819560272934,0.047058823529411764,0.03596580543888677
500,341d98a4-87b1-4f6f-9320-ede4e6845546,-2.20225,30.58886,1,0.04043467273186758,0.07058823529411765,0.040028000509100166
501,523efc12-3ccc-4274-a9a1-5efb5c9922ad,-2.15756,30.45833,1,0.041066464493303007,0.023529411764705882,0.05313025893400082
502,5b5323e3-1ed9-41f6-be79-de2ad2c0394e,-2.20739,30.44,1,0.041319181197877176,0.011764705882352941,0.04160126143707663
503,2ef87260-2b51-485b-814a-17709f5e707a,-2.204,30.47031,1,0.041319181197877176,0.023529411764705882,0.03949768783674855
504,bd8d91c0-771b-43f0-827b-d903689ac056,-1.68831,29.25981,1,0.0420773313115997,0.4,0.4862755080395401
505,7ee7ae8d-1301-4f5b-bbc6-2d33b57884e8,-1.69194,29.60992,1,0.04233004801617387,0.15294117647058825,0.058337929376493715
506,db01c144-7548-45ab-b5d1-a5a5620c3ad0,-2.61981,29.87825,1,0.043340914834470556,0.047058823529411764,0.04379322048279666
507,17077c3d-7302-45eb-8088-40ed9d0de6ed,-2.36653,29.22711,1,0.04422542330048016,0.058823529411764705,0.03365364218743371
508,9f4b1c33-024b-4308-bb39-0c0afee7df79,-2.47389,29.88933,1,0.04473085670962851,0.023529411764705882,0.058514700267277585
509,d5b586aa-a3e3-4d16-ab86-a7943bf6cd50,-2.16806,30.025,1,0.04877432398281526,0.058823529411764705,0.03384101933166462
510,e398cfd5-4639-4a67-858e-35e844e99f9c,-1.68831,29.25981,1,0.04953247409653778,0.4,0.4862755080395401
511,d68db116-b573-40e8-9215-92634e480c6a,-2.36653,29.22711,1,0.05054334091483447,0.058823529411764705,0.03365364218743371
512,e912c181-9541-44a3-8035-cd92af464fcc,-2.42256,29.0155,1,0.05066969926712156,0.1411764705882353,0.06016927580501464
513,2f63e899-33c4-4116-938c-1abb1190610e,-2.39378,29.06906,1,0.05130149102855699,0.047058823529411764,0.032755646062251634
514,a09ae656-0b7d-41b4-9116-c7befe30b50c,-1.85981,30.26219,1,0.05155420773313116,0.058823529411764705,0.05217216070595223
515,790a6b0d-134f-4add-ad39-360a81c89991,-2.05872,30.23464,1,0.053955016426585796,0.011764705882352941,0.03611429298714522
516,8d67b233-9b6a-4537-8974-c096edab236b,-2.18922,29.54981,1,0.05471316654030831,0.08235294117647059,0.04205733033529903
517,35adb85d-f165-4b6b-b3be-a374fb46eeb7,-2.67369,29.63008,1,0.05509224159716957,0.03529411764705882,0.04070680072971024
518,a9cef32e-eab1-4fce-a3b1-449ff0dc3fd6,-2.58261,29.51769,1,0.056355825120040434,0.07058823529411765,0.035272863547013984
519,b1f845de-bbb2-483b-a3ab-1625483a42ad,-2.76517,29.63864,1,0.05686125852918878,0.03529411764705882,0.04897614300057981
520,a5677bf2-8a8e-4a4c-9884-b497ace0b6cc,-2.30489,29.43189,1,0.05724033358605004,0.058823529411764705,0.029881351378105863
521,1f08d1ac-49dc-4dcc-b330-5bdd9c34626e,-1.63122,29.34631,1,0.05875663381349507,0.07058823529411765,0.09367796586200557
522,34657859-79c9-4466-ae12-5477ca2bb85e,-1.75022,29.32997,1,0.05875663381349507,0.09411764705882353,0.08194391413177209
523,0fb4de5f-0fea-4995-87c4-ce8c6f803cba,-1.38706,30.38517,1,0.06178923426838514,0.047058823529411764,0.038087056128293245
524,678a6b5d-bd56-468c-9e47-3b993fc47097,-2.44294,29.80825,1,0.06431640131412686,0.023529411764705882,0.04626094211813952
525,3fae3362-99c6-477b-860f-e0d8789a0912,-2.70842,29.51578,1,0.06520090978013647,0.03529411764705882,0.036842589057174774
526,6c15e129-fb73-4e0c-8e49-92dd57d0a9ac,-1.70122,30.20747,1,0.06583270154157189,0.08235294117647059,0.03364303593398668
527,22346bc7-bcbb-46c1-b8ab-2dbd77fecdc1,-2.61981,29.87825,1,0.06583270154157189,0.047058823529411764,0.04379322048279666
528,0f8958ab-a3bc-4917-b78c-3438dc7bac72,-1.68708,29.62622,1,0.06583270154157189,0.1411764705882353,0.0733634550931229
529,72052088-631a-4b28-95e5-e86c531714a6,-2.437,29.84936,1,0.070381602223907,0.03529411764705882,0.05674699135943886
530,f3260540-3ec0-497d-8cba-5cbb97fddf3d,-2.07606,30.56033,1,0.07050796057619409,0.0,0.06008796119525406
531,70e7e04f-da21-4251-9a16-8883a3af9ca6,-2.57978,29.46306,1,0.07530957796310336,0.023529411764705882,0.02749847977033926
532,3494e3f4-ecef-426c-9fe3-5c3999de0e2a,-2.38083,29.81181,1,0.07543593631539044,0.09411764705882353,0.0594692630775105
533,fb3cab8a-5e07-47c9-aaf0-314ca4508c69,-2.69233,29.54947,1,0.07821582006570635,0.08235294117647059,0.030199538981516835
534,40b181cb-d87f-4857-a233-1088f7c84d42,-2.78336,29.60114,1,0.08011119535001264,0.03529411764705882,0.042393195027788384
535,3daa5cd4-8a82-4e52-a907-63724042d12d,-2.71789,29.60175,1,0.08023755370229972,0.07058823529411765,0.03882595845176983
536,d6f730d2-00fa-400f-a56f-b3c45398fe16,-2.79556,29.55061,1,0.0804902704068739,0.047058823529411764,0.035053667642441985
537,c9a150db-9a5e-42e4-bb6b-0703b51088e1,-2.82297,29.52458,1,0.08086934546373516,0.011764705882352941,0.01636191365095527
538,61551195-e052-4fe8-91ad-e499614808ee,-2.04175,30.35669,1,0.08124842052059641,0.058823529411764705,0.04241794295249813
539,b139e8d3-432e-4b46-9f76-a5edf66ec73e,-2.3735,29.70183,1,0.08390194591862522,0.10588235294117647,0.04079518617510217
540,455acf0b-f963-4776-9cad-4734199ff63b,-1.60025,29.96258,1,0.08440737932777356,0.047058823529411764,0.05344844653741179
541,a25ccc97-abcb-493b-81b8-5eb02a899125,-1.90425,30.13306,1,0.08516552944149608,0.09411764705882353,0.22863193472204546
542,beac0706-9594-4304-ab4f-7ecbf9e096d6,-2.70842,29.51578,1,0.08579732120293151,0.03529411764705882,0.036842589057174774
543,40616f59-6b2b-4753-a3ed-4f451cb0a9a8,-1.70122,30.20747,1,0.08819812989638615,0.08235294117647059,0.03364303593398668
544,2120a4af-d88f-45d4-80e9-3388a189730c,-1.69458,29.28917,1,0.08882992165782158,0.15294117647058825,0.29433060399077965
545,aabf15b3-bef8-461d-a9a7-c97893c6696d,-2.50044,28.95161,1,0.08908263836239576,0.058823529411764705,0.056810628880121054
546,7ac37fa7-2ba2-4c62-a0fb-b9efcbe636a5,-2.16806,30.025,1,0.09527419762446297,0.058823529411764705,0.03384101933166462
547,d06dbc38-f5be-4fcd-8d60-ac864d74564a,-1.876,29.33972,1,0.11005812484205206,0.07058823529411765,0.07718877716968592
548,014d3831-1692-4ba2-91b8-4e40ae8905fe,-1.84228,29.70761,1,0.11119535001263584,0.09411764705882353,0.03166673737502298
549,ca01a0fd-389d-44ac-b03a-9e3dd0dcf398,-2.35458,30.06261,1,0.11233257518321961,0.03529411764705882,0.021106444359594415
550,19e81bb0-7e58-4b0c-bf49-9c5c0b324915,-2.32786,30.00333,1,0.11233257518321961,0.03529411764705882,0.035764286623393156
551,7b8dd1c5-9419-42d1-8739-2e60dcd7c9ec,-1.43856,30.11983,1,0.11233257518321961,0.047058823529411764,0.020024606507997113
552,e1d64428-2f61-4e4a-99b5-63dc7876a59d,-1.10939,30.42861,1,0.11233257518321961,0.12941176470588237,0.06340771852417519
553,e2adce63-561d-47f6-8932-c35c4d739208,-2.30261,29.76167,1,0.11271165024008087,0.10588235294117647,0.09005769801875185
554,aae9d04f-ecbd-4599-9ced-b53f2c58477c,-1.77761,30.17594,1,0.11283800859236795,0.07058823529411765,0.0446806103545317
555,cb6a85fe-1a9e-4f2b-b6df-7da685b7809c,-2.11044,30.49089,1,0.11662875916098055,0.03529411764705882,0.053900980017818505
556,53f88dc7-733c-430d-8f79-c12a47554aa5,-2.55436,28.90614,1,0.11801870103613848,0.058823529411764705,0.05314440060526353
557,24f001ad-f286-493a-876d-eb17f216bef9,-2.10508,29.65439,1,0.1197877179681577,0.07058823529411765,0.04164368645086476
558,4a4dc968-7a35-406f-b667-bf2558656baf,-1.8598,30.26219,1,0.12130401819560273,0.058823529411764705,0.052136806527795454
559,b470729a-0450-4221-9aa9-18a27e2adf78,-1.79519,29.60758,1,0.12231488501389942,0.08235294117647059,0.07086391469743894
560,6766bb8d-4b3b-442c-a4ff-9a7524ac37c7,-1.30458,30.25936,1,0.12332575183219611,0.047058823529411764,0.041184082134826695
561,e3f37296-4f89-4990-b8e0-04f44f55b483,-1.30231,30.23439,1,0.12332575183219611,0.058823529411764705,0.04189823653359354
562,7a91329d-a5ba-49ab-8dbb-5377578b935f,-1.95572,29.90306,1,0.12408390194591863,0.08235294117647059,0.06145616788992123
563,15b9abee-d10e-4656-ba8b-16f5ff09e193,-2.34339,29.67097,1,0.12686378569623452,0.058823529411764705,0.04017648805735862
564,5d88e59e-a1cc-48ce-9477-b1e2d392416b,-1.28936,30.33492,1,0.1317917614354309,0.07058823529411765,0.12890133355960007
565,6242abb8-edb7-47e9-9005-f9fb0a5baab1,-1.73153,29.96097,1,0.13671973717462724,0.07058823529411765,0.03910525645920835
566,46e198ed-73c9-4730-8cf7-e282718965d1,-1.82006,30.58706,1,0.1370988122314885,0.011764705882352941,0.029061134444868693
567,14b38c51-93ac-4a55-90a6-5b0b1b82e3fd,-2.39378,29.06906,1,0.1406368460955269,0.047058823529411764,0.032755646062251634
568,725daf79-4f68-4834-988f-1bfdd6e403e9,-2.12992,29.35244,1,0.14594389689158455,0.07058823529411765,0.06601332145432948
569,533b7022-ac79-4b5b-8f19-7e953f5c042e,-2.15875,30.28486,1,0.15579984836997726,0.0,0.026480279439424152
570,a238b0a6-549c-4a04-b3b2-55e2aeb69c32,-2.07239,29.94897,1,0.16578215820065706,0.07058823529411765,0.05301712556389914
571,27e066bd-aca4-4adf-b0d0-a5660cd4eeff,-2.28931,29.93217,1,0.16654030831437958,0.09411764705882353,0.058822281617241526
572,b988a77a-e101-4b2e-805b-31f4c15564fc,-2.31847,29.61589,1,0.16666666666666666,0.011764705882352941,0.03192835829338311
573,0c776a4b-5b09-423a-aa4f-032f8b440d65,-1.96086,29.85747,1,0.16793025018953753,0.047058823529411764,0.042856334761642134
574,4e83cedb-51f1-4c14-a8e3-986b3db8bace,-2.38083,29.81181,1,0.17108920899671468,0.09411764705882353,0.0594692630775105
575,df5eb691-c4c8-4184-a965-10410ca36249,-2.27122,29.70142,1,0.17311094263330806,0.058823529411764705,0.09145418805594445
576,70d93bbf-72c9-41b5-a82b-ff77eb2946d7,-2.41475,29.73681,1,0.20849128127369218,0.058823529411764705,0.03976637959074003
577,d9d17222-093e-407f-b85a-b009a563015c,-1.48792,29.98664,1,0.22327520849128127,0.1411764705882353,0.05207670442492894
578,571b555c-6ec3-47ac-995a-ff0c3b0c74bd,-1.54517,29.65953,1,0.2340156684356836,0.09411764705882353,0.08789402231555725
579,49fd712e-847a-4e00-afbf-c96286b001af,-2.42256,29.0155,1,0.27824109173616374,0.1411764705882353,0.06012685079122651
580,9120e4a1-0559-4255-afd2-7664c86f76c1,-2.63667,29.00439,1,0.30414455395501644,0.10588235294117647,0.11865215731195113
581,45339ea1-7894-4795-a1bb-1e056e0bbd27,-1.61483,29.99453,1,0.058630275461207984,0.07058823529411765,0.06434460424532971
582,d50cd96b-4ba8-4ebc-91b8-7516a872955a,-2.06347,29.61839,1,0.0804902704068739,0.047058823529411764,0.045684669014184096
583,94dcd22d-683f-4159-9c32-87a7bd2cb1a4,-1.97128,30.11794,1,0.08301743745261561,0.7294117647058823,0.5652390649526962
584,939e3954-f8f8-4635-82b5-2e4a3583bc5e,-1.99514,29.91336,1,0.09540055597675007,0.08235294117647059,0.06715526140879328
585,d24ce452-d148-4a2f-a215-49baaff4fd53,-1.95314,30.04283,1,0.12635835228708617,0.6470588235294118,0.821850296268013
586,e10716ad-30bd-435e-a86d-8c62a0243398,-2.37236,29.67575,1,0.1360879454131918,0.047058823529411764,0.04016234638609591
587,73edb3d2-df36-4473-aba8-6dc5626331c2,-1.95978,30.05631,1,0.14695476370988123,0.8235294117647058,0.8643530892480873
588,8899b8ae-e18f-4d55-9805-4486fedb5c11,-2.36683,29.74775,1,0.15883244882486733,0.3176470588235294,0.10815550181720476
589,f91feb81-1808-4d03-85b0-7e6e032ac95c,-2.33247,29.90292,1,0.008466009603234775,0.03529411764705882,0.050719103983708796
590,286176dd-e3a5-4ee1-861e-8770f9132d40,-2.36683,29.74775,1,0.07050796057619409,0.3176470588235294,0.10815550181720476
591,6612ab3a-463b-47fe-a57f-b9c5d51ab884,-2.05522,29.679,1,0.0922415971695729,0.08235294117647059,0.03179047699857169
592,905a373a-721c-47fd-a4ca-2ffe3df52835,-2.13006,30.54819,1,0.3683345969168562,0.1411764705882353,0.10563121349681105
593,26bfcd3f-8894-4b5a-a3bf-0ced6b33f972,-1.72225,30.47417,1,0.04700530705079606,0.023529411764705882,0.02822324042255314
594,1f10669f-8216-4bec-b2e4-89d5db72ade6,-1.96208,29.85647,1,0.034622188526661615,0.03529411764705882,0.042796232658775614
595,9b8c0ad8-4d92-40f7-a5d2-089089e4fc3e,-2.07561,30.46692,1,0.03904473085670963,0.0,0.05115042495722145
596,9b084f80-fe61-43bc-83e2-498e7819b6f7,-2.13006,30.54819,1,0.0401819560272934,0.1411764705882353,0.10563121349681105
597,57894e28-8925-4b97-9d32-e7c36d400337,-2.09372,29.57283,1,0.010993176648976498,0.08235294117647059,0.03724209127034633
598,c257c55c-c5b9-459b-a2d1-42d3985bfe24,-2.14389,29.57453,1,0.015415718979024514,0.023529411764705882,0.03622389093943122
599,0eded787-401e-47da-a853-2829f30e4510,-2.14575,29.52058,1,0.024260803639120546,0.1411764705882353,0.0356157990751347
600,0baf35e8-70fb-4c2b-b918-9bbfe5c3e1a3,-2.14258,29.4895,1,0.02438716199140763,0.08235294117647059,0.025373693663117106
601,b7ca7efc-f289-492d-a802-bcdd7aa37e27,-2.18092,29.369,1,0.03803386403841294,0.058823529411764705,0.04004921301599423
602,206eddca-2dd7-4091-a964-e1dc6a64ca9c,-2.67633,29.44039,1,0.06924437705332323,0.03529411764705882,0.029216692828758502
603,cda3d629-cce0-4e97-91c8-0eb9b57e381a,-2.37281,29.38217,1,0.07632044478140006,0.03529411764705882,0.02477620805226762
604,7dab9513-515a-4f7c-9e63-bc76ea9ba946,-1.62706,29.70808,1,0.01983826130907253,0.08235294117647059,0.04522152928033035
605,26c262c3-9c9a-4ef6-af40-e4c876c0b8a5,-2.33872,29.48747,1,0.03083143795804903,0.047058823529411764,0.025561070807348013
606,8ee1eda2-45d3-49cb-825f-257b7fead1ed,-1.907,30.04764,1,0.08200657063431893,0.21176470588235294,0.661094848189159
607,60e1af5b-2f42-4f16-b09e-fbe0999f5267,-1.93469,29.56844,0,0.09742228961334344,0.058823529411764705,0.043839180914400463
608,e5f1392b-a7a2-4c09-883e-7ea46ab4d656,-1.68653,29.62892,0,0.12079858478645439,0.1411764705882353,0.0741341761769406
609,524aaf7c-d7d4-4e2a-9633-49a6c9d2e725,-2.51008,29.75706,1,0.11852413444528684,0.058823529411764705,0.054003507134473154
610,e29983b5-aed9-40fd-a84c-4a9f4fab4a4e,-1.87483,29.53781,1,0.11865049279757392,0.058823529411764705,0.05777226252598532
611,71e464cd-478f-4b75-b70d-7f2ddb2c5202,-2.76819,29.73047,1,0.18410411928228457,0.07058823529411765,0.04411847892183898
612,a8169fd0-44e7-4464-99d0-c422362bf0a7,-2.22447,30.77064,1,0.12560020217336365,0.011764705882352941,0.028711128081116626
613,45619630-f888-496a-95c8-7a60020f6dec,-2.19281,30.50944,1,0.2193580995703816,0.023529411764705882,0.05674699135943886
614,d0796453-a926-4243-a595-3a064a3606f5,-1.77072,29.372,0,0.02413444528683346,0.058823529411764705,0.03990072546773578
615,3f91eaeb-2fc5-4265-9670-825ae236e5d3,-2.07858,30.64322,0,0.03171594642405863,0.023529411764705882,0.0320556333347475
616,dd66f200-b0f5-4019-b3f8-17dc20652b2c,-2.33872,29.48747,0,0.03866565579984837,0.047058823529411764,0.025561070807348013
617,30edf645-1b25-4b63-b5b4-77bb42089d5a,-2.01078,29.49094,0,0.04599444023249937,0.03529411764705882,0.04771399884038296
618,09359b80-24b9-4c8d-b593-d1370854cdfe,-1.86742,29.30214,0,0.05559767500631792,0.08235294117647059,0.06182031592493601
619,c1e9d110-2a0e-4eb4-8757-651f2cc793fd,-1.77269,30.297,0,0.05951478392721759,0.08235294117647059,0.054859078245867096
620,0343b875-46dd-4435-8e18-e0a04584e517,-1.75167,29.55214,0,0.07189790245135204,0.10588235294117647,0.08003125309349059
621,67399875-80c7-452f-9ac0-75f7cdce3e12,-2.00025,29.35794,0,0.07568865301996462,0.058823529411764705,0.03368899636559049
622,5854c29a-bd38-4eed-a30e-d9e5a1ce64c0,-1.83842,29.63128,0,0.09350518069244378,0.07058823529411765,0.0732078967092331
623,c46051c1-59ed-44a8-b7af-014dbe344807,-2.37281,29.38217,0,0.09426333080616629,0.03529411764705882,0.02477620805226762
624,07c779e5-3f19-479f-8435-c78d49fad2d6,-1.4395,30.1425,0,0.12547384382107657,0.058823529411764705,0.025486827033218785
625,1f2f201e-9821-45f4-ad5b-552074390c9d,-1.77039,29.34358,0,0.1919383371240839,0.058823529411764705,0.06605928188593328
626,cd4c07b3-0ca9-4114-a0c2-f35a50684223,-2.142,29.97322,1,0.11637604245640637,0.03529411764705882,0.043001286892084906
627,e88b7f93-588e-4dfd-b8be-5fd488396ee6,-2.25697,29.61489,1,0.17071013393985343,0.023529411764705882,0.03491932176544624
628,630e8000-9734-40a3-a293-8f55d86a14fa,-2.18092,29.369,1,0.21165024008086936,0.058823529411764705,0.04004921301599423
629,0874c233-29e8-474d-b9cc-d779f43bdba2,-1.95067,29.96389,1,0.23073035127621935,0.11764705882352941,0.08256261224951565
630,c5b8e245-3056-42e5-9dfa-4afcd130eee3,-2.14322,30.37936,1,0.03449583017437453,0.011764705882352941,0.04231541583584348
631,b7669bbb-8de8-4b0a-90b0-871546461e68,-2.66431,29.46206,1,0.08099570381602224,0.023529411764705882,0.02937225121264831
632,f9b7bb7b-6380-40ff-8732-6b9169459c63,-1.58444,29.6835,1,0.22946676775334848,0.10588235294117647,0.06029301542856335
633,e402ec49-9227-40b4-8847-e05edc5a6abd,-2.36747,29.38144,0,0.02843062926459439,0.03529411764705882,0.023238301302447924
634,f11ee564-8752-4e34-aab8-f977655535e7,-1.92214,30.06256,0,0.06583270154157189,0.5058823529411764,0.9362316688586257
635,d74a013b-172f-4dfa-9c47-e011187b7e90,-1.98397,30.07714,0,0.06583270154157189,0.6941176470588235,0.669852078118592
636,1747393e-69e2-4c3b-a3fd-f9cc7e3e02ed,-1.93944,30.07203,0,0.06583270154157189,0.7176470588235294,0.8265029061134445
637,404d8653-c77d-4033-af45-a9b4d8e882e6,-1.97797,30.08561,0,0.06583270154157189,0.8,0.6647398639571225
638,e5c72b6c-391f-4639-9201-01d4bdae345d,-1.10269,30.42147,0,0.06583270154157189,0.12941176470588237,0.06590018808422779
639,9642b09b-28c5-4f7e-b269-d719414d9675,-1.933,30.23292,0,0.08617639625979277,0.058823529411764705,0.0625415411593342
640,30c3e8fb-b2a3-4e4b-abe9-acbc19d9c3a2,-1.95231,30.13369,0,0.22453879201415214,0.5411764705882353,0.5381330165598971
641,561287bc-46b1-4f7f-9b18-ee99e40eb675,-2.34875,29.74567,1,0.03234773818549406,0.35294117647058826,0.1266669495000919
642,8129b4fd-2432-468b-bd14-79a4650d6bb3,-1.93944,30.07203,1,0.05357594136972454,0.7176470588235294,0.8265029061134445
643,b5fe8302-e2fc-4dfb-8eea-153e443847db,-2.20739,30.44,1,0.07379327773565833,0.011764705882352941,0.04160126143707663
644,14d58a36-0730-4196-bd1d-08a4b3a4d83d,-2.58261,29.51769,1,0.09855951478392722,0.07058823529411765,0.035272863547013984
645,4b2e44cc-0f2e-48e4-a39d-37bd84104f52,-2.204,30.47031,1,0.16376042456406367,0.023529411764705882,0.03949768783674855
646,6f2fed2e-75f9-4194-9aa8-2d46be966331,-1.30458,30.25936,0,0.022239070002527166,0.047058823529411764,0.041184082134826695
647,2349b591-0f87-4c87-94a3-eca39a97f5f9,-2.22203,30.15553,0,0.028556987616881475,0.10588235294117647,0.05063071853831686
648,5eb2eb0d-bfc4-47b0-bfa5-0d07c1b13b2c,-1.90056,29.49886,0,0.029062421026029822,0.047058823529411764,0.048926647151160324
649,ed0df7c5-9875-4be0-adf8-5c5e25d14c42,-1.933,30.23292,0,0.047131665403083146,0.058823529411764705,0.0625415411593342
650,e85a6608-c870-4c3c-9fd1-17f534abbfb9,-1.97125,30.09247,0,0.053702299722011626,0.9411764705882353,0.6622968902464893
651,250644ee-12f9-405a-9c22-86f7e3fa4a83,-1.72347,29.61622,0,0.05913570887035633,0.08235294117647059,0.05553434304866149
652,1a2903d8-57bc-4417-a618-14572d249b21,-2.41956,29.68633,0,0.060020217336365936,0.03529411764705882,0.046271548371586556
653,218c52dd-6aed-4512-aa89-8daec71d8625,-2.20225,30.58886,0,0.06166287591609806,0.07058823529411765,0.040028000509100166
654,e7974fcf-e54a-44c0-aed3-033214e89f6b,-1.95231,30.13369,0,0.06583270154157189,0.5411764705882353,0.5381330165598971
655,9ac4aa8a-3cdd-45ad-aeda-c6f67178c62f,-1.92214,30.06256,0,0.06583270154157189,0.5058823529411764,0.9362316688586257
656,3e05136b-1856-44d1-9e1a-6ac1215186b6,-1.63883,29.61444,0,0.06583270154157189,0.10588235294117647,0.05444896977924851
657,948f221a-58e8-4cef-9b98-5f9dccff0ab0,-1.93261,29.64983,0,0.06583270154157189,0.08235294117647059,0.058751573260927975
658,188cab2d-7fc6-430f-8f53-06f36ac17e11,-1.69194,29.60992,0,0.06583270154157189,0.15294117647058825,0.058337929376493715
659,2b5ffb27-0ba1-4496-aa6e-3825576b7b9a,-2.22203,30.15553,0,0.06583270154157189,0.10588235294117647,0.05063071853831686
660,b8cb6369-cdf4-475c-8ca6-849b0242da57,-2.12992,29.35244,0,0.06583270154157189,0.07058823529411765,0.06601332145432948
661,c3491837-6a06-4dc9-9631-eb08982395a1,-2.76819,29.73047,0,0.06583270154157189,0.07058823529411765,0.04411847892183898
662,7de3457b-88c2-4c2b-ac4e-af61e9db319f,-1.98492,30.07036,0,0.06583270154157189,0.7294117647058823,0.7008895111224245
663,68008e82-6898-4679-8b3e-be1689d872a6,-1.939,30.049,0,0.06583270154157189,0.5764705882352941,0.9412413559034407
664,d0290b38-4471-4844-8145-631a32e63a37,-1.38706,30.38517,0,0.06583270154157189,0.047058823529411764,0.038087056128293245
665,49743dc9-073b-42df-8ea2-dae6e8299653,-1.98769,30.10064,0,0.06621177659843315,0.6588235294117647,0.5382072603340263
666,1d640e9e-375d-466e-ad43-ea3beb077d81,-1.10939,30.42861,0,0.06810715188273946,0.12941176470588237,0.06340771852417519
667,2962a71d-35e5-4edf-a339-3378414f3c43,-1.9405,29.59869,0,0.08516552944149608,0.047058823529411764,0.053869161257477406
668,7d620c02-7d0f-40a1-8b94-b6d4b7b19a7e,-1.75747,30.28358,0,0.08605003790750569,0.11764705882352941,0.058380354390281844
669,d0bccb0e-a2af-41da-a9c6-4942006aa1ee,-1.74828,29.5515,0,0.08895628001010866,0.10588235294117647,0.07917921739991232
670,a8a04259-6760-4d2d-b65e-903b11097e28,-2.36669,29.42911,0,0.09299974728329542,0.047058823529411764,0.03295716487774525
671,633e5c64-6e5d-4311-8d83-a1fdc75ad42f,-1.82472,29.65983,0,0.09426333080616629,0.09411764705882353,0.05962128604358463
672,f6a7693b-eac2-4743-b3ae-b86a4921a707,-2.15092,29.50997,0,0.09489512256760171,0.15294117647058825,0.030330349440696902
673,7914dafc-6290-437d-b5a4-e953602175ee,-2.62469,29.74117,0,0.1014657568865302,0.24705882352941178,0.2010238569994202
674,6ac698fa-ecbc-481e-ae97-7079090805a9,-1.43856,30.11983,0,0.10159211523881728,0.047058823529411764,0.020024606507997113
675,6efa4ed8-4dd4-4261-8677-6a51b1d034cb,-1.30231,30.23439,0,0.11384887541066464,0.058823529411764705,0.04189823653359354
676,05b9386e-2475-4db7-87c3-b2bfd916d243,-2.47389,29.88933,0,0.11801870103613848,0.023529411764705882,0.058514700267277585
677,26e89649-8136-4f52-adaf-c01ebe83d8f6,-1.96383,30.51989,0,0.12825372757139247,0.047058823529411764,0.06309660175639557
678,6ad29b03-f126-4f95-a8b3-3422d3b59e5c,-1.97892,30.22936,0,0.13115996967399546,0.23529411764705882,0.16836720263600752
679,41767f5f-694a-4118-9002-42049ec0a1c9,-1.91472,29.29969,0,0.13962597927723022,0.09411764705882353,0.06581887347446722
680,adcb8b9e-5c40-4ec4-97a1-ff614cb0ac9a,-2.50461,29.70822,0,0.16148597422289612,0.058823529411764705,0.050680214387736344
681,8a8892f2-4a17-4404-903a-d228415033ac,-2.49475,29.47975,0,0.16211776598433156,0.09411764705882353,0.05778993961506371
682,199b973c-609f-4062-8a8a-ee8afc4c35f5,-1.99564,29.88897,0,0.20419509729593127,0.10588235294117647,0.06414662084765177
683,28b5e84a-56fd-419c-9b9f-513bc359cd23,-2.09683,29.91253,0,0.27571392469042205,0.011764705882352941,0.062382447357628726
684,f372415c-c109-4a1a-a8c0-ed2540724c05,-1.97892,30.22936,0,0.41066464493303007,0.23529411764705882,0.16836720263600752
685,14d5a74e-5936-4055-9a4e-1fe12407c525,-2.55436,28.90614,1,0.03399039676522618,0.058823529411764705,0.05314440060526353
686,91c7ea28-2c5e-46f4-be51-71bc0d74024f,-1.88636,29.58025,1,0.037149355572403335,0.07058823529411765,0.037220878763452266
687,4f6eb4fd-0bf5-4b77-ae85-3fde49be76b4,-1.86494,29.571,1,0.07530957796310336,0.09411764705882353,0.03881181678050712
688,815673ad-4007-43ff-9100-f05f5d068cee,-2.51436,29.76942,1,0.08668182966894111,0.058823529411764705,0.05884349412413559
689,abedfbcf-883a-4eab-ac0d-c45061ba2a5f,-2.24325,29.69067,1,0.12054586808188021,0.1411764705882353,0.08167168695996493
690,56e476c8-0dac-4003-ba21-0fb70200996e,-1.75747,30.28358,1,0.16969926712155672,0.11764705882352941,0.058380354390281844
691,350d4824-5e21-43c9-8724-6416d9ff477f,-1.939,30.049,1,0.214051048774324,0.5764705882352941,0.9412413559034407
692,4c9bdf33-1480-4f49-b59d-755f81bb87c8,-1.97125,30.09247,1,0.31678038918372503,0.9411764705882353,0.6622968902464893
693,2c72a9bc-4fca-4bf4-a2e8-fe748aebd796,-1.907,30.04764,0,0.06583270154157189,0.21176470588235294,0.661094848189159
694,62847040-9e53-4860-88c4-559fafef6c6f,-2.14575,29.52058,0,0.21367197371746272,0.1411764705882353,0.0356157990751347
695,d104b39d-3f14-441e-8bbb-d778a0c7f43f,-2.22567,29.778,1,0.06166287591609806,0.2,0.1303402486105808
696,322b9700-32ce-4c4a-87ff-4b84cd605604,-2.22567,29.778,0,0.03399039676522618,0.2,0.1303402486105808
697,2769d404-ea8e-4720-940e-542407adfc05,-1.62706,29.70808,0,0.04877432398281526,0.08235294117647059,0.04522152928033035
698,ce94c79c-882e-4f64-a1d8-fcb73add4f84,-2.16681,29.68806,1,0.004043467273186757,0.03529411764705882,0.04859078245867097
699,a80c737c-322a-4874-ab0b-ca4eb68d1507,-1.98989,30.06042,1,0.004548900682335102,0.5058823529411764,0.6316554240380128
700,1daced85-eab1-416a-8270-db0ec267c179,-2.33392,30.70206,1,0.00796057619408643,0.011764705882352941,0.027268677612320224
701,39bc3129-4120-4568-96d5-5220696a123b,-1.83061,30.38169,1,0.009224159716957291,0.03529411764705882,0.04563517316476461
702,46b39207-d253-40ca-b1f3-85a08d95946b,-2.42458,29.41219,1,0.011751326762699014,0.011764705882352941,0.035403674006194055
703,5f01f330-f28c-4a4a-b25b-98b1afe833a9,-2.56933,29.08658,1,0.012004043467273186,0.07058823529411765,0.03513851767001824
704,72923002-37c6-4e02-a70d-34c3ce9ca0de,-1.78131,29.82825,1,0.013014910285569876,0.058823529411764705,0.022223636389348492
705,02bc689a-74e7-439d-a0e5-c4f7493bd47c,-2.30606,30.05167,1,0.015415718979024514,0.11764705882352941,0.06820881591786518
706,0cad2918-c8f7-4938-be17-b57bf60fb315,-2.64169,29.01061,1,0.016679302501895376,0.09411764705882353,0.1259139055053526
707,54434680-91b2-456c-a3ad-dcf487f0b408,-1.68464,30.27094,1,0.024008086934546372,0.058823529411764705,0.03818958324494789
708,f02597ea-40ed-469f-a9a9-ef207a918aa6,-2.37244,30.13167,1,0.02868334596916856,0.023529411764705882,0.027834344462828616
709,16a69cb4-514b-423e-b85d-1d75ed9082c8,-1.95133,30.43031,1,0.03083143795804903,0.21176470588235294,0.1491274588830908
710,2d529be9-2d2d-40bb-9da6-bbde7f8cf838,-1.52289,30.21869,1,0.032853171594642405,0.047058823529411764,0.046006392035410744
711,2ad0ae82-0cd1-4901-9cc6-407a0b489efc,-1.56675,30.10919,1,0.035253980288097043,0.03529411764705882,0.03492285718326192
712,603abda7-626f-4868-b1f5-0b5b02a2ab49,-2.03228,29.62072,1,0.03550669699267121,0.023529411764705882,0.03804109569668943
713,9401f796-1e54-4618-a039-8051dafb645a,-1.73894,30.16089,1,0.03651756381096791,0.08235294117647059,0.03864565214317028
714,d2a48422-ec5f-4efa-9018-cbd30d8b1384,-1.78842,29.63122,1,0.03677028051554208,0.08235294117647059,0.06108848443709078
715,92542464-5279-4928-833d-c1fa314444f8,-1.63633,30.33953,1,0.05041698256254738,0.03529411764705882,0.051235274984797706
716,71602406-b246-4087-a182-062b37ea918d,-1.72797,30.42183,1,0.05989385898407885,0.07058823529411765,0.058203583499497974
717,cf7eeaef-d807-4f61-a143-2967010008f9,-2.59675,29.54603,1,0.0731614859742229,0.047058823529411764,0.02734292138644945
718,0b7a203d-a25f-484d-bb8c-6dcfd8295b74,-1.65147,29.64772,1,0.07429871114480667,0.09411764705882353,0.06445420219761572
719,487def27-c64d-4f59-b330-e87a12875b89,-1.59842,29.73456,1,0.07429871114480667,0.07058823529411765,0.0576343812311739
720,2eb2c83a-57a1-4d8c-897e-7cd8635db10a,-1.64414,29.70897,1,0.07733131159969674,0.10588235294117647,0.04202551157495793
721,4bd05a72-0dc7-46bd-a6da-4cb2e676c066,-1.61956,30.29025,1,0.077710386656558,0.058823529411764705,0.050874662367598605
722,86adf7da-5a21-4151-82a4-1cd1c95a8ee3,-2.06989,29.79264,1,0.08099570381602224,0.11764705882352941,0.11941934297795313
723,bd679b44-e610-4b23-a63e-74e5ed842d70,-1.28536,30.20781,1,0.12067222643416729,0.0,0.033558185906410416
724,1003d7e9-90be-491c-9c93-6ce0a5fc0fc8,-1.08733,30.36503,1,0.1335607783674501,0.0,0.03642187433710916
725,797a8ea0-92ae-4f26-a122-e7dd0b869493,-2.19092,30.53086,1,0.2648471063937326,0.058823529411764705,0.06784820330066607
726,f50c7201-2294-45cf-b1b8-20909b629d6b,-2.05833,29.67594,1,0.03184230477634572,0.08235294117647059,0.03210866460198266
727,4d858031-9a5b-4c0c-a08e-5d4740e18c03,-2.05853,30.81558,1,0.04270912307303513,0.0,0.008502679846704284
728,f54a646e-7d08-4028-8b98-3ad72967665b,-1.78681,29.74844,1,0.043088198129896386,0.08235294117647059,0.03200260206751234
729,bc020b03-ea3a-4b3f-a9c9-d2bfdaa3f1e6,-2.26889,30.21414,1,0.05104877432398282,0.0,0.030970260065334522
730,99651c4a-7c03-46f2-b2d4-a4969ffce9d7,-1.70528,30.32903,1,0.06583270154157189,0.03529411764705882,0.05161710010889087
731,2474972e-7db9-4f6a-814d-e1ee0a5a3689,-2.31794,30.07772,1,0.09186252211271165,0.07058823529411765,0.057005076859983315
732,4a8fbcb3-bd76-4d7c-87b3-636fc5a4ba2a,-2.38989,29.13856,1,0.1060146575688653,0.09411764705882353,0.031751587402599236
733,e8f205f5-3980-4ef9-b589-04aa50039f93,-2.105,30.69064,1,0.12079858478645439,0.023529411764705882,0.036807234879018005
734,9065d6fb-1d6f-48b7-be4b-323983a62ce2,-2.27736,30.58517,1,0.12964366944655042,0.023529411764705882,0.05077920608657531
735,1c8fd8df-c531-4dd3-95c3-21311294cc3b,-1.58275,30.26792,1,0.14202678797068485,0.023529411764705882,0.09061275861581322
736,a4d4a7c3-fe89-4db4-87eb-b7a7c654890c,-1.47567,29.56164,1,0.14392216325499116,0.011764705882352941,0.06818053257533975
737,77f1be73-9094-4f94-9978-07f0e5a35887,-2.17208,30.69672,1,0.15478898155168055,0.023529411764705882,0.033165754528870224
738,936e1f8c-fb76-4440-a664-03f1759e4edd,-1.95731,30.09303,1,0.15579984836997726,0.8235294117647058,0.6569265905844752
739,6bc8b99c-749f-4ff2-a115-e5d03323952b,-1.99186,30.04181,1,0.15592620672226434,0.25882352941176473,0.4525264095710831
740,6f29c37b-a757-43ce-9d43-18345fe828d5,-1.60447,30.168,1,0.1618650492797574,0.023529411764705882,0.027823738209381586
741,4c4b3f3b-842b-45c0-8428-63d5a1c03233,-1.7765,30.34711,1,0.18208238564569118,0.023529411764705882,0.06305417674260744
742,cefa0636-dad6-43a5-bc64-38614cb1f8da,-1.96392,30.07456,1,0.1873894364417488,1.0,0.7296077100391725
743,763d2996-6918-4cf3-af2f-a013f410f043,-2.31708,30.576,1,0.1890320950214809,0.03529411764705882,0.04747359042891689
744,d6b7e75d-82af-446b-8d5d-95374c6bfb82,-1.76233,29.58547,1,0.1981298963861511,0.03529411764705882,0.05792782090987513
745,3f9da081-eea5-42f4-96d8-a5c87fd01142,-1.92425,30.39586,1,0.19825625473843822,0.047058823529411764,0.07367103644308684
746,7fe564e8-abb0-435c-8c79-2fac90f37090,-2.78597,29.51597,1,0.20444781400050543,0.03529411764705882,0.04094013830554495
747,067a5d48-796b-4833-8a4a-30c96f5cf3ed,-1.79608,29.48625,1,0.21443012383118523,0.011764705882352941,0.03566175950673851
748,7ac17d24-57e8-4a71-aef3-00d89ce704d9,-1.49058,29.65439,1,0.21582006570634318,0.3058823529411765,0.24613578832746455
749,b750902a-9318-4894-bd8d-b30b66045370,-2.10344,29.75067,1,0.21998989133181704,0.3058823529411765,0.17552642371275437
750,711c7fce-2aa7-4f97-aace-eecb829964e8,-2.45972,29.71794,1,0.22327520849128127,0.023529411764705882,0.04388160592818859
751,a4613e3f-7724-4579-8940-d66ceb0c3b72,-2.13969,30.57461,1,0.2350265352539803,0.08235294117647059,0.0684704368362253
752,0a7866f4-ed52-4e3e-932a-186a83a68b8c,-1.44722,29.57656,1,0.23515289360626737,0.058823529411764705,0.08902182059875836
753,049682a2-191b-4c98-ac82-39d5e62a0371,-1.52289,30.21869,1,0.23629011877685116,0.047058823529411764,0.046006392035410744
754,cbbe45ef-fb6a-4e1d-b9e1-d5d5896dfba1,-2.52713,29.02147,1,0.23641647712913824,0.12941176470588237,0.0769554395938512
755,252789d8-67b3-4f5f-bb92-9d269f68735f,-1.65417,29.27283,1,0.23805913570887036,0.15294117647058825,0.17349355846873984
756,b34f5700-2d7a-4975-aee2-cdd16dfa5692,-1.43497,29.59256,1,0.24020722769775082,0.07058823529411765,0.0900965876147243
757,1ee01e4f-6353-412f-8d69-c11fdb4773e3,-1.79944,29.84447,1,0.24273439474349254,0.09411764705882353,0.027120190064061772
758,66b2a043-2e79-4250-a91a-d3ec118844be,-2.04188,30.074,1,0.2431134698003538,0.0,0.08071005331410067
759,2192b205-5ee8-4c9a-af46-15da0c4bc9b0,-2.47247,29.64906,1,0.24614607025524388,0.09411764705882353,0.041668434375574506
760,49811ec2-eeed-4ab1-a24d-cd318e692a53,-2.08203,29.75678,1,0.24791508718726307,0.47058823529411764,0.2439014042679564
761,31212149-38ac-4960-a108-51d112107ad3,-2.02183,29.78806,1,0.25435936315390445,0.047058823529411764,0.0427361305559091
762,6edd75dc-5952-4636-a9eb-cf0ac6adf290,-2.02792,30.21908,1,0.25751832196108165,0.023529411764705882,0.05358279241440753
763,fd6849f4-4609-4298-8444-a6f74ab8aa8b,-2.12047,30.72978,1,0.25827647207480414,0.011764705882352941,0.026929277502015188
764,fc42aef0-ffdd-4851-ab36-ad9313696768,-2.58589,29.71394,1,0.2625726560525651,0.2,0.09532547056411127
765,e6cc32bf-ea18-4851-930e-2bb8b4c9a71a,-1.49742,29.86317,1,0.2696487237806419,0.058823529411764705,0.030047516015442706
766,c896603c-39f7-4606-82d3-e81d58081c0f,-2.34972,29.16833,1,0.27002779883750316,0.058823529411764705,0.05857126695232843
767,6f9a21cb-8d3c-4cf3-bdc1-46308ead87d7,-2.10631,30.53197,1,0.27356583270154156,0.03529411764705882,0.07134826693818676
768,5511a453-5ce0-4fde-85fa-272a6e466abd,-2.80914,29.50244,1,0.27925195855446044,0.011764705882352941,0.027544440201943066
769,c480e2a0-06fa-477a-bb6e-983396349d75,-1.96069,29.619,1,0.28089461713419256,0.03529411764705882,0.04566699192510571
770,8628800d-600f-4fdf-8da4-4bbcca865d81,-2.06964,30.26758,1,0.281526408895628,0.023529411764705882,0.031352085189427684
771,1111460a-83b4-4009-a52a-8a5b766d302b,-2.32328,30.60342,1,0.2886024766237048,0.011764705882352941,0.03222533338990002
772,f0fd7a66-7d87-4580-9752-cbdf57f4508a,-1.50208,29.54736,1,0.2989638615112459,0.047058823529411764,0.07404225531373297
773,2ca5c441-8352-442a-b932-3191cece6ad0,-1.60933,29.97275,1,0.30022744503411675,0.07058823529411765,0.05151103757442055
774,df125516-8c1b-42b0-8270-6dcdfb912d45,-2.62308,29.71989,1,0.3014910285569876,0.15294117647058825,0.13508477931921994
775,52871e94-0df2-41c0-88a8-b13dc9d1936a,-2.48464,29.53189,1,0.30641900429618396,0.07058823529411765,0.08570206326983723
776,15ebfea2-468a-488c-a87a-8485da4f5894,-2.50014,29.87819,1,0.30755622946676775,0.03529411764705882,0.058408637732807266
777,0e2240a9-caff-42b3-9d64-ebb2325eac52,-2.78453,29.53286,1,0.3161485974222896,0.058823529411764705,0.03811887488863434
778,9c216f2e-4b6e-414f-9b3b-ad0105728aa8,-2.36147,30.76567,1,0.33775587566338133,0.011764705882352941,0.05572879102852375
779,b06ba3dc-a1b9-4ddc-b00b-3c0db0335e03,-2.50275,29.47708,1,0.3481172605509224,0.11764705882352941,0.05631920580374189
780,ed0ecd26-047d-403c-899e-975e5679ed3e,-1.52939,29.5895,1,0.3728834975991913,0.047058823529411764,0.07361800517585168
781,1ae8e044-7658-4342-bced-2dd3a09985ed,-2.61061,29.64333,1,0.3757897397017943,0.011764705882352941,0.030659143297554904
782,2377e320-264f-4dac-abd6-c9d56c3d731f,-2.65233,29.78139,1,0.38425574930502904,0.023529411764705882,0.061629403362889426
783,6c0274ed-120a-447a-aee5-272efc1ebd13,-2.50587,29.60256,1,0.3895628001010867,0.09411764705882353,0.06943914131772093
784,c53e22f8-a7c4-4801-ad40-c32c5f2e1791,-2.0185,29.88367,1,0.39360626737427346,0.07058823529411765,0.06396277912123655
785,3b61f616-2043-45b5-9ace-9d4da2df090f,-2.56061,29.53758,1,0.4021986353297953,0.03529411764705882,0.03215108961577079
786,54226c3c-5876-42c7-8fc9-29a673782fff,-2.02994,30.33336,1,0.4195097295931261,0.023529411764705882,0.04097549248370173
787,29106d36-3106-4e82-a339-7d66b8d8f224,-2.18133,30.75839,1,0.4431387414708112,0.023529411764705882,0.03019246814588548
788,d1beaec5-e6c3-4e9e-8ed7-a0bc2673be0b,-1.58089,30.06472,1,0.4993682082385646,0.1411764705882353,0.2108699956160819
789,a6e5c8d3-016c-4262-a0dc-cc67a513206c,-1.72392,29.7465,0,0.032600454890068235,0.07058823529411765,0.03639005557676806
790,ee149b2f-c898-4c61-b879-4cba1eb7f5d2,-1.79161,30.068,0,0.03702299722011625,0.047058823529411764,0.06707748221684838
791,3bf7bd01-c66d-416b-93c9-00c3c821c2e2,-1.91594,29.67767,0,0.04523629011877685,0.09411764705882353,0.04137499469687328
792,6c1e25f2-d9c4-44ec-b35a-2a1465919cb4,-2.23453,29.68508,0,0.04612079858478645,0.1411764705882353,0.08795765983623945
793,8e903b00-fa17-4e57-bd73-13581f199ea8,-1.287,30.24717,0,0.047131665403083146,0.058823529411764705,0.03976991500855571
794,d20bf222-e810-432f-b278-d5a0e4448822,-1.54194,29.87286,0,0.04927975739196361,0.03529411764705882,0.032020279156590725
795,096f27a4-2e54-406c-98f9-9b7cccc1571b,-1.78131,29.82825,0,0.051680566085418246,0.058823529411764705,0.022223636389348492
796,f90795e4-f3f4-434b-9029-2cf712b3ed4e,-1.70317,29.63336,0,0.05446044983573414,0.16470588235294117,0.07536096615898066
797,90320ff8-de9a-4617-a2d5-f36c964e59d0,-1.46944,29.74028,0,0.062041950972959316,0.07058823529411765,0.02318527003521276
798,8764ebf7-9e3e-4fa7-86aa-8f7da5745ed5,-1.72797,30.42183,0,0.062294667677533486,0.07058823529411765,0.058203583499497974
799,675a0ccf-b5fe-485c-a296-25cad2114e39,-1.70769,29.73272,0,0.06583270154157189,0.07058823529411765,0.03729865795539717
800,be416cf4-28d0-4776-a816-371dddae6509,-1.49231,29.93058,0,0.06583270154157189,0.03529411764705882,0.032267758403688146
801,064cedce-20aa-4e77-82e7-096ebac67a1a,-1.97811,30.17022,0,0.06583270154157189,0.24705882352941178,0.2651174465798368
802,d53a97d2-5d88-4ddd-b1cf-57e3fc473e92,-2.60381,29.83228,0,0.06684356835986859,0.08235294117647059,0.04812410730700154
803,d948dec1-9a2f-468b-a20f-38790a280d12,-2.54161,29.07908,0,0.06810715188273946,0.047058823529411764,0.0323844271916055
804,f7e7f903-cf6c-4dc0-81a1-ea928ecf5c7d,-1.65964,29.98947,0,0.0712661106899166,0.011764705882352941,0.04206793658874606
805,27f91d45-2aac-49b8-a2f0-54ff8f45b64f,-2.12147,29.26589,0,0.07429871114480667,0.023529411764705882,0.02072815465331693
806,2508a950-0ea1-4c0b-9909-d7c94a24a35c,-1.50253,29.97375,0,0.0758150113722517,0.1411764705882353,0.04856249911614555
807,e7e23c46-acea-4fd6-8d50-63feeae43a5f,-1.76089,30.06661,0,0.07733131159969674,0.047058823529411764,0.04998373707804788
808,73df426a-9316-466e-aa40-3fe1f84ecef5,-1.53453,30.16906,0,0.07733131159969674,0.03529411764705882,0.018702360244933745
809,f0b09fc5-4f42-404f-b29d-8dfbacf03663,-1.65069,29.68747,0,0.07922668688400303,0.09411764705882353,0.04955948694016659
810,a7beffa3-62d7-4230-a9fd-b27cf6e995d5,-1.85806,30.11256,0,0.08112206216830932,0.047058823529411764,0.06938257463267009
811,7fae0a60-3d94-48ac-bc4f-6fbf25e154e5,-2.71811,29.83892,0,0.08162749557745767,0.047058823529411764,0.048399869896624384
812,184a27b1-9212-4264-b12d-d4c2728700c6,-1.87531,30.24214,0,0.08289107910032853,0.058823529411764705,0.05294995262540127
813,3774670f-a022-4572-9290-8f4bd7b00b44,-1.96228,30.58975,0,0.08339651250947688,0.0,0.04789076973116683
814,6a66b954-2120-41bc-8d19-1140498f428c,-2.42458,29.41219,0,0.08491281273692192,0.011764705882352941,0.03538953233493134
815,f551af70-dcad-4f9d-8399-cce48ef0167b,-1.63822,29.89575,0,0.08567096285064443,0.023529411764705882,0.06875680567929518
816,243938ae-ca89-4d85-9136-c2f89ee96a60,-1.89261,30.10275,0,0.08567096285064443,0.11764705882352941,0.270201377398781
817,941a0668-d173-40ee-968a-2de30953fc4a,-1.79511,30.50458,0,0.0887035633055345,0.011764705882352941,0.04994131206425975
818,e29212e1-c373-4d74-98e6-851008e3fcd6,-2.43575,29.45411,0,0.09059893858984079,0.058823529411764705,0.04060427361305559
819,08b8546d-a44d-4206-be3f-5cf72960addc,-1.92817,30.13294,0,0.09059893858984079,0.23529411764705882,0.45500120204205735
820,b4300e1a-f1d7-4b89-bb77-788c1a2788e1,-2.67158,29.01075,0,0.09236795552186,0.07058823529411765,0.12606946388924242
821,f0e57fce-8979-4657-9839-888a272b5d2b,-1.8945,29.97194,0,0.09830679807935304,0.058823529411764705,0.06833255554141389
822,3d7c14f3-102d-4404-811c-55fe836815b8,-2.48511,29.68353,0,0.09906494819307556,0.011764705882352941,0.0438179684075064
823,0819fcf2-5cf3-49d4-999e-a26c839ed288,-1.65306,29.91264,0,0.10197119029567854,0.08235294117647059,0.0633122622431519
824,a47cd8ef-3dbe-4053-aeee-b2ab75befa4c,-2.263,30.11675,0,0.10411928228455901,0.011764705882352941,0.033300100405865965
825,4ec3fb1a-23ed-42bc-ba42-0299d605d7a6,-1.78419,29.28317,0,0.10740459944402325,0.047058823529411764,0.07218969637831799
826,04b2cb64-299a-4f2d-9953-a34ffe2c5bf2,-2.58914,29.87,0,0.11018448319433914,0.023529411764705882,0.04287401185072052
827,9133c70a-c1ef-44d4-a00f-b49884120cdb,-1.68775,29.81883,0,0.11081627495577458,0.09411764705882353,0.032677866870306736
