,giga_id_school,latitude,longitude,bin_internet_availability,bin_electricity_availability,norm_fiber_node_distance,norm_nearest_LTE_distance,norm_nearest_UMTS_distance,norm_nearest_GSM_distance,norm_nearest_mobile,norm_microwave_node_distance,norm_DTR_score
0,330be1f2-316e-32b8-8602-c556dedc70a3,-20.2066273,25.2350806,1,0,0.5930433745003282,0.35272175151833257,0.12528009777958854,0.004634310751600945,0.004634310751600945,0.002870626100950352,0.0306
1,e923393a-1ee5-3b21-b85b-7fc59d36c671,-24.9947434,25.3152243,1,0,0.020583497404689458,0.08009672340106472,0.0032593196170299455,0.014492753623188406,0.005476912706437479,0.819150555640128,0.002
2,64218c54-b80e-3910-b5ee-aa9b92815d0b,-24.9859972,25.6978741,1,0,0.12702106079589523,0.0437504686211292,0.02719494805459361,0.03707448601280756,0.03707448601280756,0.9252767327055652,0.0002
3,185bafe0-8d87-3a75-b70e-ae9bb5935d15,-24.622995,25.8626712,0,0,0.05500865103514109,0.000712304116367999,0.0008148299042574864,0.00042130097741826763,0.00042130097741826763,0.8421373116151621,0.000115
4,0202c1c2-9a57-3360-b30e-352d9ba76fa3,-25.7576782,25.2168433,0,0,0.18131376409522104,0.14516008097773117,0.12013648400896314,0.0036231884057971015,0.0036231884057971015,0.8691690407324446,0.000446
5,0c3ac86e-2dbb-33d6-b0db-3e1600e8fd91,-20.1328199,27.2186993,0,0,0.41459340134836825,0.22154532503561528,0.22102261152984315,0.3673744523087294,0.36577350859454,0.0003262075114716311,0.00332
6,dc63e0fd-7194-3609-ae2f-5522b6f408ed,-24.6748963,25.4556447,1,0,0.17636179225583196,0.06716278023543526,0.02525972703198208,0.0333670374115268,0.0333670374115268,0.8476610921427485,0.0192
7,76098c42-2150-3461-a915-78365ecdc298,-20.2066273,25.2350806,0,0,0.5930433745003282,0.35272175151833257,0.12528009777958854,0.004634310751600945,0.004634310751600945,0.002870626100950352,0.0306
8,8e1157cc-26ef-3ea4-89bd-e4d419ed8cea,-24.9947434,25.3152243,1,0,0.020583497404689458,0.08009672340106472,0.0032593196170299455,0.014492753623188406,0.005476912706437479,0.819150555640128,0.002
9,3b7fb29a-6e1f-3e73-8d19-447868c505aa,-24.6538453,25.9136956,1,0,0.024819521508263227,0.00028117267751368377,0.0001018537380321858,0.001095382541287496,0.0002527805864509606,0.8510536502620535,0.000237
10,4996e57e-73ad-3293-89bd-71e154c6cff7,-24.6538453,25.9136956,0,0,0.024819521508263227,0.00028117267751368377,0.0001018537380321858,0.001095382541287496,0.0002527805864509606,0.8510536502620535,0.000237
11,e40d4fde-c8b9-3127-baca-7183487adb74,-20.2066273,25.2350806,0,0,0.5930433745003282,0.35272175151833257,0.12528009777958854,0.004634310751600945,0.004634310751600945,0.002870626100950352,0.0306
12,ae8cfb5e-5843-38d2-a4f4-f907b341dec4,-25.7576782,25.2168433,0,0,0.18131376409522104,0.14516008097773117,0.12013648400896314,0.0036231884057971015,0.0036231884057971015,0.8691690407324446,0.000446
13,04be441d-bafc-3772-b525-0491e88cb0db,-24.9859972,25.6978741,0,0,0.12702106079589523,0.0437504686211292,0.02719494805459361,0.03707448601280756,0.03707448601280756,0.9252767327055652,0.0002
14,7c888d2e-4bbe-3c36-a241-903b983151f3,-20.1328199,27.2186993,0,0,0.41459340134836825,0.22154532503561528,0.22102261152984315,0.3673744523087294,0.36577350859454,0.0003262075114716311,0.00332
15,1e53827b-e461-3aa3-9c7f-d317577c8b12,-24.6447436,25.847013,0,0,0.06342103693097069,0.0016682912199145236,0.0028009777958851088,0.0015166835187057635,0.0015166835187057635,0.846899941282648,0.001008
16,a749b574-f849-3b95-8ebb-9cefe5be0fbb,-24.6543768,25.560257,0,1,0.16013364357735219,0.046880857764114874,0.009981666327154207,0.022750252780586455,0.016599258510279744,0.8435726246656373,0.003
17,deb33736-7170-336a-9e60-54a6a7849fc7,-24.6748963,25.4556447,0,1,0.17636179225583196,0.06716278023543526,0.02525972703198208,0.0333670374115268,0.0333670374115268,0.8476610921427485,0.0192
18,7dd4b992-cc24-371b-811e-54a2607d8761,-24.6447436,25.847013,0,1,0.06342103693097069,0.0016682912199145236,0.0028009777958851088,0.0015166835187057635,0.0015166835187057635,0.846899941282648,0.001008
19,1856e0cb-66c9-3af9-a74e-9a53a5e64213,-24.622995,25.8626712,0,1,0.05500865103514109,0.000712304116367999,0.0008148299042574864,0.00042130097741826763,0.00042130097741826763,0.8421373116151621,0.000115
20,aa5c2c26-383c-3f25-b027-65e12aeff067,-24.5547355,25.373073,0,0,0.12851261857884372,0.08084651720776788,0.012629863515991038,0.02098078867542973,0.02098078867542973,0.8184981406171846,0.0014
21,f16fe10e-3831-3e7f-848a-6e34bd7d8c3e,-24.4147381,25.364799,0,0,0.09402780263707415,0.0866949089000525,0.04990833163577104,0.07389619143916414,0.07389619143916414,0.784768283931018,0.0492
22,61d13d89-3483-3257-b367-64bc4f710900,-24.6770331,25.9544492,0,0,0.02416323608376588,0.0011809252455574717,0.0017315135465471583,0.0016852039096730705,0.0016852039096730705,0.857925755170389,0.000589
23,e59b5c6c-14d6-3d88-a636-363776025536,-21.9732006,28.4178865,1,0,0.0069804904241990325,0.11046337257254257,0.0016296598085149727,0.0037917087967644088,0.0027805864509605665,0.46254050409934105,0.000254
24,b5639dbc-2917-3b84-b8e9-aead8d0d6200,-26.6624954,21.9287096,1,0,0.009844281367460173,0.7667204018894805,0.42839682216337344,0.12992922143579375,0.12992922143579375,0.6403018506839484,0.000505
25,1d9c006e-4c2e-31f1-b2e3-464e3e3722a0,-26.8948576,20.6877527,1,0,0.008591372829783424,1.0,1.0,0.220087630603303,0.220087630603303,0.7327490594350086,0.000155
26,e4687376-d655-37c1-8fa2-873bbe51e9ec,-24.6718514,25.9157234,1,0,0.030248791838195805,0.0008247731873734724,0.0004074149521287432,0.00042130097741826763,0.00042130097741826763,0.8554248309157733,0.00157
27,1491a262-5c03-3dc7-b06a-c68404c4bf31,-24.3882364,25.5075556,0,0,0.01849531650856154,0.06406988078278475,0.004176003259319617,0.009774182676103808,0.006993596225143242,0.7790052845616858,0.00268
28,5fa573ac-c71a-3b7e-828b-92ece1c9e19b,-25.6198242,25.4923482,0,0,0.09313286796730504,0.0944365299542626,0.009472397636993278,0.004465790360633637,0.004465790360633637,0.9082269534393146,0.00011
29,bb19deb6-5acc-3ec2-badb-359ea858958e,-20.5486285,22.7488737,0,0,0.05739514348785871,0.16598560395891135,0.14697494398044408,0.0861139197842939,0.0861139197842939,0.5732770806602441,0.0021
30,2778b4a9-a346-3cba-af24-d8c911d6c997,-20.6835432,27.6909756,0,0,0.05250283395978759,0.1055522231386369,0.061366877164391945,0.02216043141220088,0.02216043141220088,0.1443576974099124,0.00125
31,b3ecb7f9-ae7c-34b0-97da-3945a921b666,-24.6669355,25.9388931,0,0,0.019270926555694765,0.0002999175226812627,0.000509268690160929,0.0007583417593528818,0.0007583417593528818,0.8549898875671443,0.00229
32,03e684f0-b867-362d-8256-a38412fe5e00,-24.4001031,25.5063903,1,0,0.012290436131495733,0.06305765914373548,0.0021389284986759014,0.0011796427367711494,0.0011796427367711494,0.7818541634952048,0.00087
33,202be36e-7155-348e-995e-2717a136cd3f,-22.1754,27.2502913,1,0,0.16729312093550502,0.08155882132413587,0.13582195966591976,0.01786316144253455,0.01786316144253455,0.39977817889219935,0.00364
34,187dea42-e853-3fdc-aad7-3430345ec620,-18.7096469,21.4382753,0,0,0.3409701091820297,0.4719202219389669,0.29242208189040536,0.27645770138186726,0.27645770138186726,0.940869451753909,0.0005
35,7a03e9bf-7f77-3594-9541-6ebe3e213d69,-20.221422,27.2593993,0,0,0.35332020762484334,0.20173202369348434,0.1862395599918517,0.30974047859791043,0.30822379507920467,0.021138246743361674,0.00089
36,7a526816-0563-3e79-86b1-a87a5306a55e,-25.3453187,25.561364,1,0,0.10053099457072967,0.03773337332233636,0.04878794051741699,0.02763734411863836,0.02763734411863836,0.8969184263749647,0.00052
37,8f41a764-fb0a-3b98-bd6a-f4d572574d55,-25.369884,25.6309867,0,0,0.07457788914742557,0.03692734498013047,0.03788959054797311,0.005055611729019211,0.005055611729019211,0.9132722962834091,0.000695
38,932e8782-99bc-3e5c-9dcf-77adb4bee87d,-23.9776625,23.8871255,0,0,0.2782053576755563,0.3823760965734424,0.22316154002851907,0.3614762386248736,0.3614762386248736,0.47054346171411177,1.0
39,bb3ce4a0-bd30-3644-aeff-37cbf830a981,-26.7136142,21.7672763,1,0,0.09874112523119145,0.7986053835195324,0.5020880016296598,0.07954162453656892,0.07954162453656892,0.6514364004088468,0.000235
40,3492da51-e5ef-3d01-a183-e94e0e786042,-20.5610513,27.3925746,0,1,0.15494302249269135,0.12727749868786087,0.04415359543695254,0.062268284462419964,0.062268284462419964,0.07180914685862166,0.0011
41,5d00752e-010c-33df-ac79-ba8cfdd5d4ec,-21.7029027,21.641446,1,0,0.002983115565897022,0.487272250131214,0.0015278060704827868,0.0028648466464442197,0.002612066059993259,0.5511602113824674,0.000319
42,d3c68f70-8ad0-3d14-85cb-bcfe3d1283f7,-25.3874522,25.4991433,0,0,0.1020822146649961,0.051848241733523294,0.018741087797922187,0.027047522750252784,0.027047522750252784,0.887784616053759,0.00147
43,8541a306-b0ec-3c5c-a4f1-0282e252d179,-21.8166259,28.7658234,0,0,0.2305351709325219,0.18116892854465028,0.1954063964147484,0.26710481968318167,0.26710481968318167,0.49283430833133984,0.00294
44,149e9ffb-a205-337e-a0e5-2492efbe456b,-24.675065,25.542373,1,0,0.17254340433148377,0.0510422133913174,0.00422693012833571,0.007077856420626896,0.007077856420626896,0.8483570015005546,2.8e-05
45,453bb354-c81c-33e2-9d82-277dadeb4f6c,-25.4756456,25.4405959,1,0,0.04940039377125469,0.07302991677288748,0.0017824404155632513,0.001600943714189417,0.001600943714189417,0.8838918730835309,0.000313
46,862263d5-9a8b-3586-8c4c-6bcd4345b6ad,-22.7277115,27.4239327,0,0,0.2109062705089195,0.07537302241883484,0.0552047260134447,0.005224132119986518,0.005224132119986518,0.5366548507056956,0.00089
47,71ab5b26-d191-3718-98f0-aa66a12fa8aa,-20.510964,27.1957523,1,0,0.23500984428136745,0.14892779485641452,0.06798737013648401,0.11611054937647455,0.11257162116616111,0.026292325424613443,0.0016
48,d1ec8070-9235-3b59-904f-b907342c0a83,-20.863318,27.2267603,0,0,0.015094564763438937,0.08360200944740198,0.01614381747810145,0.01002696326255477,0.01002696326255477,0.08903290346432377,0.00077
49,e74637ca-99a7-3ecb-81b4-edf60c6d1ec2,-19.3876839,22.1608243,0,0,0.03448481594176958,0.2765052110669567,0.007078834793236912,0.011796427367711493,0.011796427367711493,0.7300524106735098,0.00142
50,8ef3918d-9d56-3dca-8b68-c2b435d49ef8,-25.2320338,25.6796622,1,0,0.002446154764035558,0.007272999925020621,0.0032593196170299455,0.00429726996966633,0.00429726996966633,0.9840810734401845,0.000425
51,436860a4-1760-3d69-afa9-3f566dc45e0b,-24.4181616,26.1391837,0,0,0.028041286319432007,0.03430306665666942,0.007944591566510492,0.007330637007077857,0.007330637007077857,0.8041450101124329,0.000223
52,f486434a-2913-3cf7-ace1-93430ad434c8,-20.5710053,27.7073987,0,0,0.057991766601038115,0.12875834145609963,0.023782847830515385,0.01626221772834513,0.01626221772834513,0.14298762586173153,0.00024
53,bf5f6c9c-0de0-3330-b22a-ab6f49b7b2a6,-20.9540029,27.6802344,0,0,0.18059781635940575,0.05447252005698434,0.06320024444897128,0.059066397034041124,0.059066397034041124,0.1719331057129809,0.0005
54,43f0c60a-2b99-33e5-a141-97ab65cd1166,-18.1512069,24.5012343,0,0,0.02338762603663266,0.42996925845392525,0.32455693623956,0.008763060330299968,0.008763060330299968,0.5208011656481744,0.000152
55,67485d34-01eb-3d4c-a04d-8eba18ecd5be,-20.6333525,27.29161,0,0,0.15357078933237872,0.11822373847192025,0.08051537991444287,0.023929895517357604,0.023929895517357604,0.05567274862449167,0.001318
56,9f41bd2c-edb1-3b8f-9c43-62465972914d,-22.8666261,26.4824904,0,0,0.11079291211741542,0.1350003748969034,0.06060297412915055,0.11004381530165151,0.10035389282103135,0.48148228693212713,1.0
57,2672784e-151b-3394-b2c3-b3f3e00ba213,-22.1538775,20.8642167,1,0,0.516914265258636,0.6611306890605084,0.45640660012222456,0.021907650825749917,0.021907650825749917,0.4838744753495857,0.0026
58,b02bd5f2-ea9b-364e-9068-923f4e522b1b,-22.192081,20.3172473,1,0,0.1830439711234413,0.7485753917672642,0.17101242615603993,0.032524435456690266,0.032524435456690266,0.5373072657286388,0.000456
59,629e96ca-3ac5-310a-b373-f40bb3fc4975,-23.6684061,22.7866803,1,0,0.05644054650677166,0.6020844267826349,0.002546343450804645,0.020812268284462424,0.00429726996966633,0.24069764913120067,0.0046
60,eeac5869-e821-3acd-abc7-bde30b144786,-22.0916005,20.6169677,1,0,0.3790346638028757,0.6897540676314016,0.338256264004889,0.1810751600943714,0.1810751600943714,0.5218232825174521,0.000624
61,99448ca1-ba62-39cd-8f10-ff924414e552,-17.8000307,25.1492822,1,0,0.01044090448063958,0.560902001949464,0.0007639030352413935,0.0025278058645096056,0.0013481631277384564,0.5764086727703717,0.00051
62,f8965ccf-6d8d-3ce1-9e5b-90383c6370d4,-18.0751924,24.5852467,0,0,0.09510172424079709,0.45184449276448985,0.26400488897942553,0.11189753960229187,0.11189753960229187,0.5322619228845443,0.000344
63,b2afe33d-cbff-3530-a9b2-d1b5c55b11be,-17.7957137,25.2332828,1,0,0.05321878169560288,0.5716802879208219,0.003921368914239153,0.0025278058645096056,0.0025278058645096056,0.5769306047887264,0.000304
64,40c9aae4-032f-3389-accb-f07903681faa,-24.400511,25.5211707,0,0,0.008591372829783424,0.06056459473644749,0.0016805866775310653,0.004381530165149984,0.0028648466464442197,0.7820933823369506,0.0
65,f7a1dd72-0f91-3a5c-8f20-f59f78d0d6da,-24.418565,26.1382433,0,0,0.028458922498657592,0.034115618204993634,0.008199225911590955,0.007836198179979777,0.007836198179979777,0.8041885044472958,0.00011
66,3635f6f9-7bd5-3b58-b49c-7b893dde793f,-22.384409,27.5622963,0,0,0.27850366923214603,0.09992876958836322,0.0037176614381747813,0.006235254465790361,0.006235254465790361,0.4615401343974948,0.00167
67,0a11a8b8-0a4e-32d2-a576-cba7d3d4902c,-23.0396266,26.4695155,0,0,0.032635284290913426,0.1580002999175227,0.07985333061723365,0.0714526457701382,0.0714526457701382,0.5161255246504143,0.011
68,9c0c3314-517a-39a1-a613-fb32499bdfee,-24.7004231,23.5051853,1,0,0.30314420380645546,0.4237272250131215,0.44092483194133225,0.2983653522076172,0.2983653522076172,0.42009003327316624,0.000128
69,02307f97-f9b8-3ed6-bf46-e9f3babc44f0,-22.3962159,26.707145,1,0,0.0039377125469840695,0.07925320536852368,0.0006620492972092076,0.0005055611729019212,0.0005055611729019212,0.4232216253832939,0.00057
70,60742348-bc92-35d0-80bb-94d80196edfc,-23.884328,24.7481761,0,0,0.22594117296104047,0.24240833770713058,0.19072112446526787,0.3041793056959892,0.3041793056959892,0.6714872887806363,0.912
71,838f1d60-51ae-3c7e-b8f3-a16494ed7319,-26.6583942,21.8380243,1,0,0.04767018674303442,0.78205368523656,0.4550315746587901,0.057128412537917096,0.057128412537917096,0.638409847117413,0.0002
72,5fda22ed-df7e-3c14-b766-fdf3b0c25355,-20.473418,24.5118263,0,0,0.3225344549847861,0.22795606208292726,0.31895498064778977,0.020812268284462424,0.020812268284462424,0.1791314181327882,0.0001
73,e760effc-dc5b-3fe6-8f7f-07ef93185b84,-22.992894,20.1928903,1,0,0.48105721615655395,0.874428282222389,0.4134243226726422,0.1571452645770138,0.1571452645770138,0.41989430876628325,0.000142
74,5dd1f9ca-0722-313c-b625-61c9751a94f9,-26.6438322,21.9940283,1,0,0.04462740886581946,0.7539739071755269,0.40104909350173157,0.18141220087630602,0.18141220087630602,0.6368440510623492,0.000828
75,a3c9b90a-e567-32d4-bb3b-5e438dd7efe0,-24.6644622,25.6977254,1,0,0.13978879541793449,0.022343855439754073,0.006569566103075983,0.008088978766430738,0.008088978766430738,0.8480960354913774,0.0005
76,6ad199b0-7dce-3177-aff8-ca3a8bf02a50,-24.4007786,26.1565014,0,0,0.0156315255653004,0.03917672640023994,0.001425952332450601,0.002443545669025952,0.002443545669025952,0.8008829349977166,0.000236
77,a684c702-f434-3ea5-b4cc-f4bd27b0da94,-22.6646603,27.2231608,0,0,0.0893741423542748,0.03658993776711405,0.06829293135058057,0.0465958881024604,0.0465958881024604,0.5166692038362004,6e-05
78,1f31d1d0-d15a-350e-bd11-d8ffcef1d131,-23.9143871,21.8323153,1,0,0.6167889744048685,0.7663642498312966,0.5113057649215726,0.01457701381867206,0.01457701381867206,0.02496574821129548,0.00025
79,d6256f86-6e62-3f9c-8f18-425152e4d8bf,-22.2067755,29.0366107,0,0,0.0496987053278444,0.23474169603359082,0.3474740272968018,0.09850016852039097,0.09850016852039097,0.6001783267729379,0.0014
80,1ff31a58-44d9-3e44-a48a-a6bae642945a,-24.2583176,25.8517472,1,0,0.19772089970765466,0.06003973907175528,0.0029028315339172947,0.005898213683855747,0.004887091338051904,0.7548006872104909,8.6e-05
81,85ddc940-9d85-3c19-b133-f93b70dab59d,-23.3599082,25.8355104,0,0,0.009665294433506352,0.24581989952762998,0.3957526991240579,0.009774182676103808,0.009774182676103808,0.540852054019964,0.000201
82,a83e6b83-00af-33ff-9ef3-f4f0b91f532a,-25.75732,25.2028639,0,0,0.1856691128214307,0.14667841343630506,0.11295579547769403,0.013397371081900911,0.013397371081900911,0.8664506448035144,0.000602
83,9f4729e5-30a9-35ab-88a0-98aa04f2f442,-22.786835,27.7579043,1,0,0.0081140743392399,0.1386368748594137,0.11433082094112855,0.018200202224469164,0.018200202224469164,0.5664702172542027,0.0003
84,52ad21b7-a047-3f71-977a-628ba9f5a81f,-24.6641556,25.9183712,0,0,0.02577411848935027,0.0006185798905301044,0.0004074149521287432,0.0008426019548365354,0.0007583417593528818,0.8536633103538265,0.000275
85,a7593a10-df4a-3154-9f2e-fe64fdc88bc2,-22.5195308,27.5368708,0,0,0.23035618399856808,0.08635750168703608,0.07751069464249338,0.00429726996966633,0.00429726996966633,0.49194267446665074,0.0012
86,0e5eae3a-584a-3764-923c-94fedc308510,-23.8404895,26.4510287,0,0,0.3975896426227552,0.16739146734647978,0.05754736198818498,0.02620492079541625,0.02620492079541625,0.6901246112693823,3.9e-05
87,6d891f9d-c1fd-3171-9c95-4220c763f300,-24.1022323,25.0299278,0,0,0.004474673348845534,0.17262127914823427,0.0007129761662253006,0.0012639029322548028,0.0012639029322548028,0.7135245634256139,6.8e-05
88,dd236218-5756-3734-88cc-944c2e8550ff,-24.6045811,26.4378743,1,0,0.22868563928166574,0.0676688910549599,0.16072519861478918,0.06075160094371419,0.06075160094371419,0.86397146771633,0.000336
89,507a3877-17df-3fa5-b02b-8f998f0a66f5,-20.6680668,27.4123647,0,0,0.1396694707952986,0.10472744995126342,0.029079242208189048,0.04440512301988541,0.04440512301988541,0.08381358328077768,0.0631
90,90d37b40-15fc-31db-94b6-816d2a14e6e8,-19.982701,23.4276448,0,0,0.016407135612433624,0.0006373247356976832,0.0006620492972092076,0.0013481631277384564,0.0011796427367711494,0.41721940717221584,0.00013
91,d439f5d1-bedc-3569-9477-fe16f9bedb8d,-24.4752459,25.8984849,1,0,0.11317940457013304,0.01767638899302692,0.0050417600325931965,0.003960229187731716,0.003960229187731716,0.8080160059152296,0.000262
92,03141b8c-8bf3-341d-813d-e7fa85400cf0,-24.3918072,26.145049,1,0,0.01044090448063958,0.03930794031641299,0.0008148299042574864,0.0014324233232221098,0.0014324233232221098,0.7982297805710806,2e-06
93,7bfc59e6-1b6f-3b8a-9659-d5b0d266780f,-24.1138191,21.7800063,1,0,0.6828948153451465,0.7697008322711256,0.5759319617029945,0.0955510616784631,0.0955510616784631,0.02587912924341604,0.000318
94,69004a0e-247c-34a6-b019-2c6d2fe860b0,-22.856463,27.2959413,0,0,0.22063122725374376,0.07687261003224115,0.065237319209615,0.09496124031007752,0.09496124031007752,0.5640127873344497,0.001
95,ddab56da-adcb-3e38-80f2-57ae82c7b0d9,-24.6018421,26.4317123,1,0,0.22468826442336373,0.06648796580940243,0.15751680586677533,0.0562015503875969,0.0562015503875969,0.8629493508470522,0.0084
96,3d14e12f-ef9f-3404-85ab-331db2937835,-17.9865549,24.6460543,0,0,0.05208519778056202,0.4737947064557248,0.21343450804644531,0.07945736434108527,0.07945736434108527,0.5490507361416176,0.00014
97,018daf63-fd5e-373f-881c-a9c3f2d83d82,-25.7679479,24.5620606,0,0,0.5138118250701033,0.24122741246157312,0.014565084538602568,0.4647792382878329,0.024182676103808563,0.7480808124741752,0.00116
98,59c9f78a-642a-3287-ae47-3b2de5e08745,-24.3935527,23.5799109,1,0,0.18387924348189247,0.42278998275474255,0.4429109798329599,0.006319514661274015,0.006319514661274015,0.4128699736859274,0.0082
99,07971d11-b5f2-3c95-8d80-04e91f2c2f6c,-20.299987,27.1336393,0,0,0.3789750014915578,0.1939529129489391,0.11708087186799758,0.19447253117627233,0.1937984496124031,0.04442946306243612,0.00071
100,9a37c3dd-1273-38d1-8d08-96b3ef282cc2,-21.4495258,27.4724405,0,0,0.00405703716961995,0.05242933193371824,0.0036158077001425953,0.016936299292214362,0.006066734074823054,0.24067590196376923,0.00249
101,170ba0f1-a283-3435-aff5-ee4e9a538e67,-21.971823,28.4139273,0,0,0.00924765825428077,0.10969483392067184,0.0030556121409655735,0.007330637007077857,0.005139871924502865,0.46171411173694626,0.0012
102,f3995fb9-8220-38bd-be32-e5d3863720ca,-24.6651011,25.5436823,0,0,0.16604021239782826,0.050367398965284554,0.0008148299042574864,0.008426019548365353,0.0014324233232221098,0.8459865602505274,0.00029
103,28ac6db2-2567-3dd1-a019-0d23ae4a9227,-20.4991725,27.0653757,1,0,0.2666308692798759,0.16321136687410967,0.0014768792014666938,0.01811594202898551,0.0025278058645096056,0.001109105539003545,0.00162
104,0c9f778f-f34c-3ced-8467-08ba6f8dbff9,-25.4431466,25.291599,0,0,0.07380227910029233,0.08885056609432407,0.047056426970869834,0.003875968992248062,0.003875968992248062,0.8508579257551704,0.000399
105,71944b5f-73f3-3605-89e0-05f83cbdb0e5,-23.1020562,26.8341977,1,0,0.0056082572638864025,0.12658393941666043,0.0014768792014666938,0.003707448601280755,0.0025278058645096056,0.5719287562794947,0.0001
106,957d81cb-88f2-365a-8763-2bb2abdb5871,-24.9761326,25.3341227,0,0,0.006145218065747866,0.0792344605233561,0.00193522102261153,0.004128749578699023,0.003286147623862488,0.8218906987364896,0.000216
107,408a6591-40c2-3810-9a67-648ec9a00a74,-24.9945837,25.3152243,1,0,0.020523835093371516,0.08011546824623231,0.0033102464860460382,0.01457701381867206,0.005561172901921133,0.8191288084726965,0.0006
108,757d1fdc-fdcb-35f6-bbc9-824be254a14b,-20.3265983,23.8788747,0,0,0.24288526937533558,0.10444627727374974,0.19647586066408637,0.1361644759015841,0.1361644759015841,0.3123110714829394,0.00013
109,c4c1ce40-913b-3498-9a4a-0ecd4ac7f192,-20.8999794,27.2745782,0,0,0.02756398782888849,0.0717552673014921,0.04593603585251579,0.019295584765756657,0.019295584765756657,0.10158101907226584,0.335
110,96651c8a-ecf4-3834-b655-847053e6b521,-25.3357161,22.9776933,1,0,0.18041882942545193,0.5103846442228389,0.38057649215726225,0.26112234580384225,0.26112234580384225,0.4178500750277277,0.000234
111,49189d33-32e4-3783-bdc9-af87f866341a,-22.389493,20.1184173,1,0,0.08901616848636715,0.8038539401664544,0.08525157873293951,0.004550050556117291,0.004550050556117291,0.5288258704303765,1.7e-05
112,b8a62d7b-fc13-3ea5-888f-e9699f48f5e6,-20.676647,27.1230473,0,0,0.1465902989081797,0.12645272550048742,0.09518231819107763,0.05443208628244018,0.05443208628244018,0.038666463693103975,0.000444
113,a84b2924-a332-30c8-aa99-40f28bee271e,-20.79722,27.3272513,0,1,0.0637193484875604,0.08422058933793208,0.05958443674882869,0.03395685877991237,0.03395685877991237,0.08748885457669138,0.0002
114,2e6ee71f-cbd5-3d27-be82-237e3f4c11f4,-22.718381,27.4775123,0,0,0.18220869876499013,0.0834895403763965,0.061723365247504595,0.045921806538591174,0.045921806538591174,0.5363503903616554,0.00112
115,2c49ab13-f010-35b0-b865-cec16c62fc76,-24.7726636,25.5929949,1,0,0.15022969989857407,0.0430381645047612,0.01532898757384396,0.026541961577350864,0.025446579036063365,0.8724093686797295,0.0003
116,3c830c62-048a-322b-af65-cbd1aba89680,-20.514598,27.0551423,0,0,0.26042598890281005,0.16161805503486545,0.011356691790588715,0.022076171216717226,0.018874283788338393,0.0006959093578061459,0.0374
117,2efd1e49-74bd-3447-8286-e63b93869902,-20.5365266,27.5887404,0,0,0.06413698466678598,0.13102646772137666,0.04191281320024445,0.029069767441860468,0.029069767441860468,0.11556444773068308,0.000324
118,619c0b2c-e0c8-34ab-ba44-619b2b06b9b0,-25.6574941,25.4044523,1,0,0.08913549310900304,0.10853265352028194,0.056376044000814834,0.03800134816312774,0.03800134816312774,0.8947002152969576,0.000128
119,737ac2ca-c35c-3261-81fb-5e8cab51fcda,-21.44227,27.4582683,1,0,0.009009009009009009,0.0516607932818475,0.004379710735383989,0.00429726996966633,0.00429726996966633,0.23784877019768177,0.0022
120,cfe25b93-d518-310d-8540-ade869eed198,-20.7984745,27.2655287,0,0,0.043374500328142704,0.08982529804303818,0.030759828885720108,0.040023592854735425,0.040023592854735425,0.07933366678990061,0.000119
121,2e860531-53cd-35c9-9c11-cba8496be703,-20.62082,27.4441145,0,0,0.11705745480579917,0.11348129264452278,0.001425952332450601,0.0036231884057971015,0.002443545669025952,0.08642324337255072,0.00015
122,bd0a1473-22b1-3010-87de-373eb9060e43,-22.5843706,27.6445488,0,0,0.15876141041703953,0.1074079628102272,0.11881238541454474,0.012386248736097068,0.012386248736097068,0.5127547136985408,0.00281
123,2e47dd2f-d3d5-332b-bd8d-ea68b2e8a317,-24.540967,26.0371963,1,0,0.08257263886402959,0.0026992577041313644,0.004939906294561011,0.0020222446916076846,0.0020222446916076846,0.8286540678076681,0.00273
124,50abb2eb-1a3d-3708-877a-9dfb94f5e1e8,-20.99652,27.3383373,1,0,0.10261917546685757,0.0485491489840294,0.001425952332450601,0.0003370407819346141,0.0003370407819346141,0.12885196703129417,0.000329
125,d89fad37-2504-391c-82fe-1471b6888eaf,-23.1122761,27.5659823,0,0,0.06765706103454447,0.15014620979230717,0.1570075371766144,0.07920458375463432,0.07920458375463432,0.6332122741012983,0.0029
126,00cd30e4-e2bd-32da-a7f1-a43238131a5a,-22.718298,27.3113233,0,0,0.15219855617206607,0.056628177251255914,0.08494601751884295,0.030923491742500846,0.030923491742500846,0.5312180588478351,0.0015
127,c56a69b2-5d23-3d8f-af8e-2fac8c72249a,-21.297264,27.8830673,0,0,0.2529085376767496,0.06819374671965212,0.07430230189447953,0.12175598247387935,0.12175598247387935,0.26122697518648197,0.00032
128,1018c4aa-c81e-3563-b600-75ec3a73eb35,-20.835264,26.6769063,0,0,0.23166875484756277,0.17652020694309067,0.11927072723568957,0.1503201887428379,0.1503201887428379,0.11541221755866299,0.00295
129,ed532440-9ae9-3c50-ac3e-8f69ef924313,-22.5987112,27.6250751,0,0,0.15649424258695782,0.10397765614456027,0.12370136484008963,0.03471520053926525,0.03471520053926525,0.5150164191114107,0.0104
130,2cfb1ad3-1f2c-34ce-ab52-963f68369d21,-21.864873,27.7482053,1,0,0.010679553725911341,0.030704056384494267,0.0002546343450804645,0.006572295247724976,0.0005055611729019212,0.35724071939629864,0.0006
131,7243c1e3-4071-3feb-9763-79535cf24d80,-25.3129467,25.2705668,0,0,0.15321281546447107,0.08035915123341082,0.009064982684864536,0.051482979440512305,0.015082574991573982,0.8346562860187461,6.4e-05
132,bd38458f-8b44-3f1e-8b43-d109283f035b,-21.149615,25.6582973,0,0,0.19963009366982876,0.36091324885656456,0.14503972295783257,0.22758678800134816,0.22758678800134816,0.06284931387686754,0.00399
133,b531bb77-6c4b-3d1c-ab63-542de58d539b,-24.7247933,25.644935,1,0,0.13501581051249922,0.035052860463372575,0.007995518435526585,0.004128749578699023,0.004128749578699023,0.8616445208011656,0.000592
134,fba367f5-f794-3b9e-8358-0b0a466d45e7,-23.2973941,27.2767933,0,0,0.15255653003997374,0.16137437204768693,0.2549908331635771,0.015588136164475904,0.015588136164475904,0.6695300437118066,0.000526
135,29b6a295-6a64-3b03-88af-da3d2bf8e9a2,-23.0444023,26.5760132,0,0,0.03341089433804665,0.1438854315063358,0.054288042371155025,0.05030333670374116,0.05030333670374116,0.5289128591001022,0.002
136,75f1eba0-c1e9-32d0-bea3-8e7197d310cd,-24.6257212,26.1223733,1,0,0.10255951315553964,0.009841043712978932,0.0028009777958851088,0.003960229187731716,0.003960229187731716,0.8522714916382141,0.0002
137,bff47383-9516-386f-997c-509156cce41e,-24.9061798,25.2319352,1,0,0.08251297655271164,0.1034153107895329,0.027347728661641885,0.023424334344455684,0.023424334344455684,0.7957506034838963,0.00066
138,37198387-824f-3699-bc19-0449d1225983,-22.681061,27.6123163,0,0,0.12021955730565,0.10497113293844194,0.08224689346099004,0.07920458375463432,0.07920458375463432,0.5336102472652937,0.0121
139,a261e277-c958-3f61-8ffa-3bd24c3eef44,-22.323602,27.8247963,0,0,0.12278503669232144,0.0709679838044538,0.0358015889183133,0.19784293899561844,0.05931917762049208,0.46549811887001724,0.00174
140,69a0d95a-e42c-3a07-bbac-150ae072a8a4,-22.375597,27.5912113,0,0,0.2600680150349024,0.09539251705780911,0.012528009777958852,0.020812268284462424,0.020812268284462424,0.4611051910488659,0.0002
141,9cfd111e-2657-31c0-9e16-1eb89088647f,-22.4337378,26.5616493,1,0,0.09414712725971003,0.10388393191872237,0.06895498064778978,0.007077856420626896,0.007077856420626896,0.4075201704977927,0.000333
142,9c1dc7a5-2da5-3048-8f85-80bc262036d1,-23.139833,26.9629627,0,0,0.08478014438279338,0.1269026017845093,0.06192707272356896,0.1084428715874621,0.10254465790360634,0.5961768479655525,0.0032
143,ad27df55-e661-322e-a8bb-279b9407eafa,-22.634903,26.4069183,1,0,0.24545074876200704,0.13280722801229666,0.0012731717254023224,0.006572295247724976,0.002190765082574992,0.42526585912184944,0.000684
144,8c8a53bf-7c5a-3891-971a-54b2d414830c,-24.9830774,25.352363,0,0,0.005250283395978759,0.07559796056084578,0.00458341821144836,0.008088978766430738,0.007667677789012471,0.8261966378879152,0.000772
145,0cc34b1c-c76c-3901-91dd-88cb51c2df23,-24.8752264,25.8688599,1,0,0.03287393353618519,0.019850791032466075,0.0034121002240782234,0.008763060330299968,0.005729693292888439,0.9025726899071397,3.4e-05
146,988b9c2e-aa62-3978-876c-c7f4844192ca,-21.262027,24.9481573,0,0,0.2601873396575383,0.3887680887755868,0.0947239763699328,0.08257499157398046,0.08257499157398046,0.09662266489789705,0.000652
147,7b2a9b91-dba3-34d8-9333-24038c945c3b,-22.063689,28.5958113,0,0,0.1190263110792912,0.14583489540376401,0.10424730087594215,0.017273340074148977,0.017273340074148977,0.5054911597764391,0.0
148,eac69e4f-afc0-332a-b5aa-884aca7c023a,-25.2010315,25.5529386,1,0,0.07750134240200465,0.02335607707880333,0.0179262578936647,0.04550050556117291,0.029743849005729697,0.883696148576648,0.00161
149,59e74e36-a949-3402-93f9-6d050f262700,-22.7523567,27.631166,0,0,0.08579440367519836,0.11335007872834972,0.05764921572621716,0.04221435793731042,0.04221435793731042,0.5512906943870561,0.00087
150,e28661a9-702e-374c-b82b-6485682aa30a,-23.6844725,26.6589497,1,0,0.3935922677644532,0.21582814725950367,0.08143206355673255,0.1124031007751938,0.1124031007751938,0.6736402583563491,0.00107
151,874657c0-9602-3c4b-a84b-c1a2dc1a9da0,-19.9934843,23.4197456,1,0,0.009724956744824292,0.001855739671590313,0.001425952332450601,0.002696326255476913,0.002443545669025952,0.418654720222691,0.000132
152,6641d0c7-ba45-30aa-907c-cd6f53da1340,-20.5332737,27.6500964,0,0,0.061034544478253086,0.1335757666641674,0.01614381747810145,0.019969666329625886,0.019969666329625886,0.1294391405519431,0.000116
153,6a19b472-38ae-3e00-bbf1-f06d7582b677,-24.7781213,25.4071981,0,0,0.13692500447467335,0.0781472595036365,0.004176003259319617,0.01263902932254803,0.006993596225143242,0.8723441271774351,0.000468
154,36740336-da4f-3f2b-bd6e-bd72140cb4ec,-23.9912261,21.7655543,1,0,0.6670843028458923,0.7761490590087727,0.5570380932980241,0.02114930906639704,0.02114930906639704,0.0015223017202009442,0.00244
155,b1501483-ca4c-37a9-ae57-edb9366b06cb,-20.622181,27.5162533,0,0,0.07219139669470795,0.11241283646997077,0.0380423711550214,0.01482979440512302,0.01482979440512302,0.10227692843007197,0.00091
156,343afdd9-fc3f-3ef6-93e7-40f1cae6f8ff,-22.9372098,26.36178,1,0,0.11586420857944035,0.16242408337707134,0.11000203707476065,0.017104819683181668,0.017104819683181668,0.48304808298719093,0.00108
157,52674d7b-8f33-3fab-8ca3-100d8f9592b6,-21.210857,26.0199903,0,0,0.37378438040689693,0.29058258978780843,0.04074149521287432,0.19009100101112233,0.06749241658240647,0.1453580671117587,0.00148
158,22f7ff11-276e-3e25-8be3-218ec274f4a9,-20.217667,24.1298563,1,0,0.08668933834496748,0.13955537227262507,0.2691485027500509,0.030586450960566232,0.030586450960566232,0.2539851684318118,7.6e-05
159,af1afcd4-97d8-31d9-813e-e5fb0d230a8c,-24.990015,25.3457387,0,0,0.007577113537378438,0.07578540901252157,0.000458341821144836,0.0016852039096730705,0.0008426019548365354,0.8252615096883632,0.00022
160,2a53820c-e561-3585-8c8c-c0595143f39e,-20.559697,27.1163663,0,0,0.21717081319730325,0.1472782484816676,0.042880423711550215,0.03530502190765083,0.03530502190765083,0.01300480612400235,0.00232
161,6a86f2d2-44d2-363d-b6f9-b10d32fc0295,-20.2087389,26.158696,1,0,0.017182745659566852,0.3304153857689136,0.014463230800570381,0.018452982810920126,0.018452982810920126,0.2022486571124111,0.00062
162,98d7f916-52a2-3522-864f-491394c87cd5,-23.1351841,20.2843723,1,0,0.5855855855855856,0.8830134213091402,0.5035139539621105,0.002612066059993259,0.002612066059993259,0.38379401083008946,0.000138
163,fe5b7d9c-7d47-302d-ac6c-385a2df7d1fc,-24.4093226,25.5282637,1,0,0.005071296462024939,0.05848391692284623,0.0020880016296598086,0.0023592854735422987,0.0023592854735422987,0.7842680990800949,0.00019
164,38899e51-9651-3f0a-81f5-3ea05b28d012,-22.42962,20.6532443,1,0,0.3928763200286379,0.7296993326835122,0.3499185170095743,0.07153690596562184,0.07153690596562184,0.44757845290650894,0.00246
165,91d2dc79-3552-33e3-be8e-0c264451cd24,-22.4230153,26.741622,1,0,0.029711831036334343,0.07106170803029167,0.001884294153595437,0.0016852039096730705,0.0016852039096730705,0.4332470695691886,0.000334
166,7306bab1-784a-3888-aff4-feed3783f8eb,-20.3005557,27.1331519,0,0,0.3786170276236501,0.19387793356826877,0.11667345691586882,0.1937984496124031,0.19312436804853386,0.044603440401887656,0.00131
167,a2de9b55-a5ff-3e4a-ba2d-801d3c7e9721,-20.515492,27.5171233,0,0,0.1016049161744526,0.1345504986128815,0.07231615400285192,0.03682170542635659,0.03682170542635659,0.09918883065480721,0.000119
168,594d49e1-a49c-3692-a25e-c8217539ac6b,-19.6618909,22.1914703,0,0,0.208400453433566,0.24812551548324216,0.16255856589936854,0.02965958881024604,0.02965958881024604,0.7077398168888502,0.0002
169,e6084074-567f-3f6a-9c85-7c3bcd7d77d2,-20.7899025,27.1846157,1,0,0.06360002386492453,0.10052860463372575,0.023935628437563663,0.031344792719919114,0.031344792719919114,0.06904725659482853,0.000163
170,2fdba3d5-a026-3d27-9027-c8f30daa0ff7,-24.9603373,25.5875989,0,0,0.14629198735159,0.05173577266251782,0.004125076390303524,0.006066734074823054,0.006066734074823054,0.9174912467651088,0.00012
171,1add6ff9-82dd-377a-b148-8efcfce93b62,-21.2005985,27.4774296,1,0,0.024521209951673523,0.008641373622253881,0.001833367284579344,0.005224132119986518,0.0031176272328951806,0.18702563991040166,0.01237
172,9276a8ef-4c40-3208-b25f-67743dbe18a1,-24.1879321,26.8619413,0,0,0.4471690233279637,0.170896753392817,0.29303320431859853,0.04204583754634311,0.04204583754634311,0.8025139725550747,0.0014
173,b24f712d-6b28-31cd-9278-fc2612b06ede,-25.7605232,22.5665123,1,0,0.20273253385836162,0.5977543675489241,0.15675290283153392,0.2509268621503202,0.2509268621503202,0.4581693234456212,0.0
174,d490cb21-c311-3968-aee1-b650a0f0d2ed,-24.5720391,26.0353483,1,0,0.06676212636477537,0.005848391692284623,0.0015787329394988797,0.0012639029322548028,0.0012639029322548028,0.8359393688972011,0.000155
175,5a1815c0-c8b9-38de-a607-37044013a5c4,-25.0388502,25.7474947,1,0,0.13101843565419724,0.03520281922471321,0.004990833163577103,0.009015840916750928,0.008341759352881698,0.9388904595176479,0.000496
176,08ee50f6-3f23-3e37-82dc-6b6886991ffa,-24.438344,26.0755873,0,0,0.06133285603484278,0.02425582964684712,0.000509268690160929,0.007162116616110549,0.0009268621503201888,0.8059935193441055,0.000301
177,97fb0816-9d1c-3e91-b425-e9ee067784c2,-21.1743826,27.4997986,1,0,0.003878050235666129,0.002980430381645048,0.000509268690160929,0.0009268621503201888,0.0009268621503201888,0.18415501380945135,0.000389
178,26a02e53-2dd5-3726-8f0a-9a5d4b8c9ee6,-22.2731276,26.7888145,0,0,0.09116401169381301,0.07989053010422136,0.016092890609085354,0.0016852039096730705,0.0016852039096730705,0.42591827414479266,3.6e-05
179,0548d271-42e9-3fcd-8f82-c46831b59d9b,-23.4037058,26.6933067,0,0,0.21096593282023743,0.19477768613631258,0.1017518842941536,0.007077856420626896,0.007077856420626896,0.6169671400300111,0.000266
180,8cd6aece-9ebe-31f7-8f4d-b3960d5d83a9,-22.5513107,27.1312995,1,0,0.004534335660163475,0.008435180325410513,0.002393562843756366,0.0010111223458038423,0.0010111223458038423,0.4884196333427571,0.00011
181,0c4d222c-0984-31c5-8d62-fc15c642605f,-18.5346059,25.6590823,0,0,0.501998687429151,0.5268426182799731,0.468730902424119,0.03875968992248063,0.03875968992248063,0.4093686797294653,0.0
182,910eb553-c683-3f7a-8eeb-700419b2537f,-18.0393722,24.3126354,0,0,0.12678241155062345,0.43461798005548485,0.39386840497046244,0.18587799123693968,0.18587799123693968,0.5614031272426766,0.0065
183,eb9c5b28-5419-3729-b2a5-972447cabd4b,-21.87196,27.7489353,1,0,0.006145218065747866,0.029485641448601642,0.003666734569158688,0.0022750252780586455,0.0022750252780586455,0.3588717569536568,0.00232
184,d286c0bd-1c2c-30d9-b738-484b8701ab34,-25.7388494,25.0944526,0,0,0.22051190263110793,0.15719427157531685,0.05866775310653901,0.018200202224469164,0.018200202224469164,0.8435508774982059,0.0013
185,56ab14a6-b64d-3b47-a8d8-aba7273510b1,-24.9716401,25.3382483,1,0,0.0053099457072966995,0.0791407362975182,0.0015787329394988797,0.003286147623862488,0.002696326255476913,0.8224778722571385,0.000859
186,00029c04-894d-36cf-ba50-39b1ae4f80b9,-24.4283271,26.0099963,0,0,0.09217827098621799,0.022118917297743124,0.0027500509268690164,0.012133468149646108,0.004634310751600945,0.8008829349977166,0.000198
187,0c72e19b-7cea-327c-9f70-c689235e5c3f,-25.6344778,25.5409035,0,0,0.11383568999463037,0.09438029541875986,0.020676308820533718,0.014155712841253791,0.014155712841253791,0.9193397559967814,0.000155
188,24b0177b-354c-36f0-bc3f-c59beb29328b,-24.4366526,26.0608487,0,0,0.06759739872322654,0.02358101522081428,0.00667141984110817,0.005476912706437479,0.005476912706437479,0.8049496553073963,0.0003
189,7d0788e5-1652-3712-867f-78339d2d3df3,-22.8669018,27.4147232,1,0,0.22421096593282022,0.09243083152133165,0.0031574658789977595,0.06959892146949781,0.005308392315470172,0.569536567862036,0.0015
190,d95d1976-8b26-3c66-9841-54df5a13c72a,-24.914794,25.4629826,0,0,0.082155002684804,0.07100547349478895,0.05245467508657568,0.010448264239973037,0.010448264239973037,0.9054650631755214,0.000597
191,b3490a77-0150-3360-b51b-992dbfb38590,-24.5459106,26.4730997,0,0,0.22349501819700493,0.07507310489615357,0.17213281727439397,0.11156049882035728,0.11156049882035728,0.8526194463171173,0.0002
192,3e54fbe6-c0b1-3599-96e2-73b95a4ce51c,-26.8223907,20.816321,1,0,0.0846608197601575,0.972407587913324,0.923253208392748,0.21368385574654533,0.21368385574654533,0.707631081051693,0.000114
193,e8c66366-be2a-3d9e-b487-6a681cebc190,-24.3738499,26.080615,0,0,0.043016526460235065,0.037152283122141416,0.0046343450804644535,0.013060330299966297,0.007751937984496125,0.7909879738164105,0.000167
194,cf88ee1d-a9fc-3c4d-b3c6-92ddab9f945a,-22.722667,27.573336,0,0,0.12600680150349025,0.10069730824023396,0.05260745569362396,0.037327266599258516,0.037327266599258516,0.5414609747080443,0.0026
195,65b7e724-4455-388e-9e89-a788c5b0312e,-21.4287119,27.453745,0,0,0.014975240140803054,0.04924270825522982,0.0017824404155632513,0.008931580721267275,0.003033367037411527,0.23443446491094538,0.00277
196,fc17855d-34ae-3018-ad58-69eae31de03b,-22.4036831,26.7120894,1,0,0.00912833363164489,0.0778098522906201,0.003768588307190874,0.0029491068419278733,0.0029491068419278733,0.42528760628928086,0.0003
197,8c967543-7a2a-3ca6-8337-709f89995470,-18.0133549,24.4045543,0,0,0.10649722570252372,0.44691459848541665,0.34217763291912817,0.15554432086282438,0.15554432086282438,0.5595328708435727,2.6e-05
198,33e25ab7-c9b2-3fc1-8331-eae3c8e28be4,-21.1876764,27.533953,1,0,0.025356482310124693,0.00026242783234610483,0.00020370747606437154,0.0025278058645096056,0.00042130097741826763,0.19098362438292416,0.0005
199,fe0a95f1-ffa8-314c-bef1-73bec998d040,-24.4105407,25.5112405,1,0,0.005846906509158164,0.06123940916248033,0.0017315135465471583,0.003707448601280755,0.0029491068419278733,0.7843985820846835,0.000327
200,ea8a8524-1c7f-370e-b594-9426efe49183,-22.5373979,27.1397274,0,0,0.014617266272895411,0.0096910849516383,0.0011203911183540437,0.00926862150320189,0.001937984496124031,0.4851358110606094,0.0044
201,e5001d8c-e513-339c-82fd-66b377c7e001,-20.8215665,27.2146327,0,0,0.03555873754549251,0.09173727225013123,0.0006111224281931148,0.015082574991573982,0.001095382541287496,0.0787029989343888,0.000304
202,dba21803-4bec-38ff-9df8-b7a3d5f7db79,-20.7537325,27.3568257,0,0,0.09713024282560706,0.09036889855289797,0.08555713994703606,0.020559487698011462,0.020559487698011462,0.08472696431289825,0.00327
203,3b1fd8f2-29ba-35ce-b6da-f48442e8c4ec,-23.0237121,27.5276613,1,0,0.11508859853230713,0.13121391617305245,0.10338154410266857,0.1404617458712504,0.1404617458712504,0.6107257029771872,0.0042
204,1cc7e76b-4bd3-3b06-a6cd-450666862289,-22.1917747,27.944927,1,0,0.012230773820177794,0.04744320311914224,0.015379914442860054,0.04617458712504214,0.02553083923154702,0.4473392340647631,0.0015
205,0fb9065a-c041-380d-b82b-c86d3f93ad85,-24.3751826,26.1577217,1,0,0.003042777877214963,0.043506785633950676,0.0031065390099816663,0.001600943714189417,0.001600943714189417,0.7949242111215015,0.000412
206,a9dccc16-29fb-3d88-b966-38127a674316,-24.9870441,25.3367523,1,0,0.007278801980788735,0.07754742445827398,0.00193522102261153,0.001095382541287496,0.001095382541287496,0.8231737816149446,0.000757
207,bdf1f4ed-4af3-356f-9c24-39b2fb42af02,-20.480582,22.6993573,0,0,0.014438279338941592,0.16512334108120272,0.14575269912405786,0.014155712841253791,0.014155712841253791,0.5824108909814497,0.0006
208,9c9f6975-e65b-3d88-b314-0c9112dd1c60,-20.5385444,27.3207755,0,0,0.20195692381122843,0.13505660943240613,0.08056630678345895,0.06985170205594878,0.06985170205594878,0.054955092099254074,0.00017
209,59cc4deb-8f1b-314c-8318-ee76bf356d53,-22.887802,27.5096453,0,0,0.1652049400393771,0.10851390867511436,0.029588510898349973,0.06605999325918437,0.049039433771486354,0.5777787443185526,0.0003
210,7e5ab178-fe06-398c-b6ac-79b9023868fb,-20.486651,27.0009993,1,0,0.2932402601276773,0.17237759616105575,0.01812996536972907,0.029069767441860468,0.029069767441860468,0.014266141835025989,0.0006
211,2e69ea33-5748-3496-99d6-0bc0a8d2f86a,-21.8784025,28.8283267,0,0,0.25284887536543166,0.19117867586413742,0.21552250967610512,0.2500842601954837,0.2500842601954837,0.5131026683774439,0.00403
212,cd71a71f-b989-33b8-a7dc-d3cf4fc40408,-20.3228409,27.1287,0,0,0.3647753713978879,0.18994151608307722,0.1039926665308617,0.17315470171890798,0.17214357937310415,0.04542983276428245,0.0012
213,522ae2e1-fc0c-3e92-897a-2c062f87d244,-20.7663196,27.6874718,0,0,0.09892011216514526,0.08924420784284323,0.06009370543898962,0.009774182676103808,0.009774182676103808,0.15035991562099038,0.002
214,0ee165ba-47b1-3e1d-b934-ce622cc94155,-22.655632,27.6890443,0,0,0.10446870711771372,0.11805503486541202,0.11697901812996538,0.016093697337377824,0.016093697337377824,0.5319139682056413,0.00151
215,1a448eab-e13d-3abf-afe0-f768c3a91860,-18.7342309,22.1771853,0,0,0.01736173259352067,0.3565644447776862,0.27256060297412915,0.13751263902932254,0.13751263902932254,0.7847900310984495,0.00069
216,ec517b3e-95a5-3db8-9da4-2d9d14ed5e8b,-18.8159839,22.4136883,0,0,0.0013722331603126302,0.31285146584689216,0.34146465675290283,0.08771486349848333,0.08771486349848333,0.7275732335863254,0.0044
217,f35e9740-7711-3f37-af3b-b6d95161e049,-22.3894337,26.7061287,1,0,0.0008352723584511663,0.07998425433005925,0.0002546343450804645,0.0012639029322548028,0.0005055611729019212,0.4219167953374073,0.000117
218,e402574c-bb23-306f-a7f3-fbbf0e7551b5,-21.919123,27.2983143,0,0,0.005667919575204343,0.10684561745519984,0.011611326135669179,0.018958543983822043,0.018958543983822043,0.33990822695343936,0.00303
219,8ca2ce6c-13ea-3fc4-8e6c-d7a105ecf744,-18.3896039,21.8428403,0,0,0.016287810989797744,0.45398140511359386,0.012782644123039316,0.021065048870913382,0.021065048870913382,0.8918295891960073,0.001
220,110be636-54be-3c9c-86fd-a94d0c98cfa4,-19.7654865,23.6686257,0,0,0.22373366744227668,0.05972107670390644,0.11886331228356081,0.03370407819346141,0.03370407819346141,0.37429049866254926,0.00126
221,e3b117ec-ec00-34d8-8ac7-53099f7620cd,-23.0302601,26.5200218,1,0,0.0012529085376767495,0.14947139536627432,0.06039926665308618,0.0524098415908325,0.0524098415908325,0.5196703129417394,0.000262
222,979c2daf-dae8-3ebc-9f1c-a099a599cd1b,-24.6299501,26.4035223,0,0,0.22558319909313287,0.06152058183999402,0.14147484212670608,0.03269295584765757,0.03269295584765757,0.8677772220168324,0.000667
223,30e79005-4983-3ec5-9b3f-f4f9a3461755,-22.407336,26.7030903,0,0,0.011634150706998388,0.07915948114268577,0.0035139539621104094,0.005729693292888439,0.005729693292888439,0.4244829610943175,0.0029
224,018ad9ef-0f73-35f4-8698-a3e61d954fe1,-20.8587562,27.6733385,0,0,0.15607660640773222,0.0706118317462698,0.0895803625993074,0.03926525109538254,0.03926525109538254,0.15771045821281782,0.00195
225,70a3cbb4-f166-32dc-9625-df0209823f9c,-24.8483496,25.8274547,0,0,0.007457788914742557,0.012071680287920822,0.0014768792014666938,0.001937984496124031,0.001937984496124031,0.8950699171432921,0.000253
226,8320d8be-504c-3128-8015-cedb2c54bf5f,-24.8679091,25.8698094,0,0,0.029831155658970227,0.018613631251405867,0.0030556121409655735,0.005055611729019211,0.005055611729019211,0.9008546636800557,2.6e-05
227,c698337a-f281-38d5-8c90-1d26cf980fb8,-24.7144836,25.8696591,0,0,0.06986456655330826,0.004611231911224414,0.0021389284986759014,0.002190765082574992,0.002190765082574992,0.8641889393906443,0.000468
228,7a83a2fa-3aa1-30ad-b39e-db1f45ff3568,-25.6540956,25.4964797,0,0,0.11127021060795894,0.100828522156407,0.024546750865756778,0.0028648466464442197,0.0028648466464442197,0.9125111454233087,0.0155
229,aaa53dd1-dd54-3046-97cc-eb005ec925c5,-23.091447,26.8284685,0,0,0.011097189905136924,0.12499062757741625,0.0013240985944184152,0.007836198179979777,0.0022750252780586455,0.5691233716808386,0.0074
230,77c62f2b-c2ac-3e17-a36b-cae71dd7dde8,-21.865593,27.7529493,0,0,0.009784619056142233,0.030029241958461426,0.0021898553676919946,0.008763060330299968,0.003707448601280755,0.35787138725181045,0.00077
231,4430b8ab-b30a-3c9b-adc8-2d37192293bc,-25.228311,25.6794772,0,0,0.0,0.006504461273149885,0.0017315135465471583,0.0009268621503201888,0.0009268621503201888,0.9831894395754954,9.9e-05
232,02a89141-0fc1-3bbd-a790-dc1b0e2d34d5,-22.4104125,27.3992067,0,0,0.19103872084004533,0.065438254480018,0.09029333876553271,0.01145938658577688,0.01145938658577688,0.46030054585390257,0.0084
233,f2f06ad8-893a-3fd0-a364-2c681167a03b,-23.1102071,26.8216503,0,0,0.0033410894338046656,0.12907700382394846,0.0012222448563862297,0.009100101112234582,0.0021065048870913382,0.5719505034469261,9.2e-05
234,24151c39-191e-37dd-9d33-b7505bb3ab57,-21.283731,27.4697013,1,0,0.07797864089254818,0.020769288445677443,0.001425952332450601,0.002190765082574992,0.002190765082574992,0.2039449361720636,0.00298
235,167d8d9b-763a-3bc2-bb1d-6f7ed99c67f2,-21.1659135,27.4944475,1,0,0.002207505518763797,0.003449051510834521,0.0011713179873701367,0.002443545669025952,0.0020222446916076846,0.18178457255942415,0.0
236,9f8d2b91-f455-325f-bd66-ad735d6f2162,-22.491001,26.4288763,1,0,0.18370025654793865,0.127539926520207,0.07786718272560604,0.0069093360296595885,0.0069093360296595885,0.3996476958876107,0.0
237,20b20d7e-5811-34c9-bd06-e70ba5c651a5,-19.9927735,23.4216231,1,0,0.010918202971183101,0.0015183324585738925,0.00035648808311265025,0.001600943714189417,0.0006740815638692282,0.4182632712089251,7e-06
238,b7850919-4e86-36dc-928f-a1a2fb0abd32,-21.8807249,27.7434045,0,0,0.0056082572638864025,0.028829571867736374,0.001833367284579344,0.004044489383215369,0.0031176272328951806,0.36024182850183767,0.003
239,4c133307-3ae7-3000-a46f-e0648f5c14e3,-21.984008,27.8596063,0,0,0.010918202971183101,0.0024180850266176807,0.00229170910572418,0.00016852039096730702,0.00016852039096730702,0.3940369266902986,0.0013
240,41ae8315-8af6-3537-9d08-c9fd2e951e7a,-25.5086184,25.6311012,0,0,0.016347473301115686,0.0652695508735098,0.023375432878386643,0.04086619480957197,0.03875968992248063,0.9254072157101538,0.00015
241,41af7d95-5586-32bf-8d8d-ecb9479fec24,-21.9030315,28.0444877,0,0,0.13429986277668396,0.04150108720101973,0.09309431656141781,0.057802494101786325,0.057802494101786325,0.3980818998325468,0.00114
242,a02b9d33-1d30-3936-9f6f-fb0b9d780c14,-21.4413843,27.4615253,0,0,0.007040152735516973,0.05132338606883108,0.0025972703198207376,0.007246376811594203,0.004381530165149984,0.23793575886740756,0.00153
243,587c1a9d-7b6e-3427-b7a9-07f2413bea03,-21.070384,24.5665673,0,0,0.515959668277549,0.3070593086901103,0.083876553269505,0.04507920458375464,0.04507920458375464,0.1797838331557315,0.00482
244,a1785eac-a249-3a4c-aa65-40c966be92d9,-26.0252972,22.3972063,1,0,0.0008352723584511663,0.6409237459698585,0.004481564473416175,0.034462419952814294,0.007499157398045164,0.5058391144553422,0.000264
245,1b7b74f0-ca83-3af3-ba05-a1e787d539ed,-20.8362123,27.6248949,0,0,0.13925183461607302,0.07141786008847568,0.06686697901812998,0.0007583417593528818,0.0007583417593528818,0.14553204445121024,1e-05
246,2c10242d-3e82-3902-9495-c20a3ae0a50b,-19.9916851,23.411423,0,0,0.004772984905435236,0.002999175226812627,0.00035648808311265025,0.005139871924502865,0.0006740815638692282,0.42059021812408937,0.00109
247,5b44bb11-4a52-31b4-8ad4-4f85056c5c61,-22.412914,28.3985043,0,0,0.00536960801861464,0.13912424083377076,0.1124974536565492,0.002190765082574992,0.002190765082574992,0.5443098536415631,0.00349
248,4e1219d5-5126-3a9a-91cf-99c7de7360ed,-24.0256531,21.8675433,1,0,0.6136268719050176,0.7558109020019496,0.5143104501935222,0.011290866194809573,0.011290866194809573,0.02433508035578366,0.0006
249,5eee3008-a364-3956-ba70-67c2bf0131fd,-22.3926474,26.6923044,1,0,0.00948630749955253,0.08219614605983357,0.0037176614381747813,0.0020222446916076846,0.0020222446916076846,0.4202640106126177,0.000529
250,72cac920-e988-395c-b315-531c348a42d9,-20.720003,27.5859613,0,0,0.06885030726090327,0.09321811501836996,0.002393562843756366,0.007162116616110549,0.004044489383215369,0.1248287410564774,8.3e-05
251,366a60c2-1df3-3447-90c2-2bbc817035d7,-25.8177775,24.6855648,0,1,0.4570133046954239,0.226943840443878,0.07944591566510491,0.36889113582743516,0.13153016514998314,0.777135028162582,0.0124
252,caf20cca-448c-349e-bca8-89f81da1bd2e,-22.114924,26.9225803,0,0,0.22397231668754844,0.09359301192172154,0.12955795477694032,0.15251095382541285,0.15251095382541285,0.3845334145227584,0.00132
253,4d81bdc3-51b1-3e1b-8795-fac0ce1844df,-21.031948,24.4013613,1,0,0.6328381361493944,0.2789420409387419,0.0012731717254023224,0.006740815638692283,0.002190765082574992,0.21795011199791228,0.00132
254,11e5ce2f-dd1a-351c-a56c-42ee360f14c2,-20.4903425,27.0353387,1,0,0.2803532008830022,0.16795381270150714,0.0031065390099816663,0.0011796427367711494,0.0011796427367711494,0.007002587912924341,0.000115
255,7784e0e0-cf62-3b2b-8060-c50b6510bf1a,-25.2748346,23.2818827,1,0,0.039317463158522754,0.4525380520356903,0.24195355469545732,0.011712167172227839,0.011712167172227839,0.4537763956244699,0.000475
256,72758641-0744-3514-ae1e-abb0e20f9d3a,-20.5041906,27.4376463,0,0,0.14491975419127737,0.13768088775586718,0.06717254023222653,0.0059824738793394,0.0059824738793394,0.08120392318900463,0.0
257,96b44191-91c6-3c29-a2ab-4ffc5a275df2,-24.0174721,26.3146353,0,0,0.25660760097846186,0.12274124615730678,0.006569566103075983,0.004465790360633637,0.004465790360633637,0.7206793815105582,0.000599
258,4f9bbe83-8334-31e0-933a-edfaf1e22f8b,-24.1674815,24.9591177,1,0,0.06479327009128333,0.17779485641448606,0.04634345080464453,0.06934614088304686,0.06934614088304686,0.7309657917056304,0.0001
259,ce0ad81b-c97a-3523-a845-4be7be0d697b,-20.3824985,22.32905,0,0,0.2477775789034067,0.22111419359676093,0.3271542065593808,0.2824401752612066,0.2824401752612066,0.664288976360829,0.0021
260,f9dc2105-9f04-3b54-8a8e-8220fedc3a08,-23.6022742,25.8222055,0,0,0.16013364357735219,0.19547124540751298,0.3336728457934407,0.23289518031681833,0.23289518031681833,0.597720896853185,1.7e-05
261,94d16360-bd56-3aa3-8fe3-5f869a9bc5cf,-24.6685526,25.9653107,1,0,0.020046536602827993,0.0011059458648871564,0.0016805866775310653,0.0011796427367711494,0.0011796427367711494,0.8562729704455995,0.0002
262,20b33e66-8460-3d89-8362-3b502e2cfb3e,-20.3249086,27.2279879,0,0,0.32020762484338644,0.18276224038389446,0.12945610103890814,0.22286821705426357,0.21427367711493092,0.045060130917947944,0.0011
263,ef40c9c0-5f04-3a5f-8bbb-fd80140ace50,-24.4127896,25.4896417,1,0,0.01849531650856154,0.06472595036365,0.0006620492972092076,0.0042130097741826765,0.0011796427367711494,0.784768283931018,0.000485
264,d21bb17e-2b69-3cf2-843e-68c035549a18,-24.0932485,24.5298707,0,0,0.13955014617266273,0.2589038014546,0.12309024241189653,0.20222446916076847,0.20222446916076847,0.6128786725529,0.0002
265,29a5329e-47ae-3721-82e5-c805debec157,-24.2363018,25.675134,0,0,0.1496927390967126,0.06800629826797631,0.09161743735995112,0.09453993933265926,0.09453993933265926,0.7449274731966162,0.0074
266,8acad8a9-a47e-3d95-aab7-cdba81fe0421,-24.522617,25.0482713,0,0,0.0065628542449734486,0.14259203718977284,0.1283357099205541,0.059487698011459395,0.059487698011459395,0.7367287910749625,0.0008
267,a5caa525-5c39-37c4-b3e2-2793c6900e07,-23.7350516,24.5886564,0,0,0.2615595728178509,0.2852215640698808,0.20299449989814627,0.333417593528817,0.333417593528817,0.6450644803514343,0.0456
268,a166ae1e-476a-3274-87ac-299598daef53,-24.3931262,26.1405371,1,0,0.012529085376767496,0.038576891354877414,0.0002546343450804645,0.00042130097741826763,0.00042130097741826763,0.7983167692408065,1.1e-05
269,b524b850-47af-3721-9183-7c0e866a0221,-22.38212,26.7023553,1,0,0.005727581886522283,0.08124015895628703,0.004074149521287432,0.001600943714189417,0.001600943714189417,0.4200682861057347,0.000577
270,0d734e93-793d-30ee-9591-3c24f10b84cd,-24.3823294,25.5239761,1,0,0.020643159716007397,0.0620641823498538,0.0044306376044000815,0.005308392315470172,0.005308392315470172,0.7777439488506622,0.0011
271,c7e7686c-792f-3337-a3f5-2696eec37017,-24.0029389,24.3079591,1,0,0.021299445140504743,0.3051473344830173,0.00667141984110817,0.0,0.0,0.5635778439858208,0.00012
272,f8d27097-ffcf-3dae-a7ed-f2c926c05d96,-24.2925751,26.1677813,0,0,0.05602291032754609,0.059139986503711495,0.015532695049908332,0.01550387596899225,0.01550387596899225,0.7760694169584412,0.000184
273,87ddfdad-758d-3f3e-8739-60478d023f98,-24.5787346,25.9392087,0,0,0.04080902094147127,0.0008060283422058935,0.002546343450804645,0.004381530165149984,0.004128749578699023,0.8340038709958029,0.0001
274,28f5aae0-67b1-3f02-a7e1-0b396f708a62,-24.8727297,25.8596532,0,0,0.02816061094206789,0.018632376096573446,0.00229170910572418,0.003875968992248062,0.003875968992248062,0.9017245503773134,0.000249
275,03389fad-057d-3d23-af01-777c5267857e,-25.5374027,25.3098077,0,0,0.04092834556410715,0.09893529279448154,0.07572825422693014,0.03075497135153354,0.03075497135153354,0.8637105017071527,0.0133
276,fac63289-7692-392f-8c95-d4396864a8ce,-24.8730972,25.860722,0,0,0.028697571743929354,0.018782334857914078,0.00193522102261153,0.003960229187731716,0.003286147623862488,0.901855033381902,0.000213
277,7214dbaf-de65-3cbb-abae-6f297b8869c8,-22.362929,26.7174771,1,0,0.0181373426406539,0.08032166154307567,0.008301079649623141,0.005476912706437479,0.005476912706437479,0.41928538807820287,0.0016
278,023f18d4-43d5-3874-be09-6eb236d426a2,-22.570692,27.4451043,1,0,0.19223196706640414,0.06886856114568496,0.12309024241189653,0.09226491405460062,0.09226491405460062,0.5000761150860101,0.0024
279,3264e1ab-402b-3fdd-806e-57cd8746a7e7,-23.6469171,26.8243643,0,0,0.35511007696438157,0.2353790207692885,0.16933183947850888,0.2087125042130098,0.2087125042130098,0.6823173781614945,0.00085
280,abd3e069-f66e-3fe2-9dc1-241b0faffad6,-21.8671072,26.4411069,0,0,0.38195811705745486,0.18729849291444856,0.29853330617233653,0.02671048196831817,0.02671048196831817,0.2950220733749429,0.000613
281,c15045ea-f432-3b5c-a47f-396ab04a9554,-21.2021565,24.8576697,0,0,0.32044627408865817,0.36730524105870893,0.131034833978407,0.004465790360633637,0.004465790360633637,0.11384642150359915,0.0003
282,9a8c047c-cd78-3204-927a-5189cd979b5f,-20.240138,24.2509353,0,0,0.10405107093848816,0.16366124315813155,0.33408026074556946,0.05013481631277385,0.05013481631277385,0.22660548463562621,0.015
283,7f9bc78b-586d-3b78-9295-f634192a8de1,-22.947214,27.3755513,0,0,0.18197004951971837,0.10097848091774764,0.051843552658382565,0.1482979440512302,0.08586113919784294,0.5876084639975643,0.00125
284,83068368-93dd-3aa0-bafb-cd4e75a16eb3,-22.8026245,26.9996697,0,0,0.17976254400095457,0.05719052260628328,0.044459156651049096,0.013902932254802831,0.013902932254802831,0.5489637474718918,0.00032
285,b046b891-a14f-34d0-8e32-80cafe34da37,-23.1338238,26.8318856,0,0,0.016287810989797744,0.13284471770263181,0.00422693012833571,0.0022750252780586455,0.0022750252780586455,0.5779092273231412,0.000865
286,cab69f11-0714-3f89-88d9-43960039b9d5,-25.2191831,25.6786786,0,0,0.005250283395978759,0.0045924870660568355,0.0017315135465471583,0.004044489383215369,0.0029491068419278733,0.9809712284974882,0.000149
287,5552b506-6e3f-32e2-9582-d97f0ba183eb,-25.0911146,25.6275831,0,0,0.09504206192947914,0.023655994601484594,0.004023222652271338,0.02814290529154028,0.006740815638692283,0.9494595828893287,0.003
288,009c794e-7cfa-3de0-9a88-dcac422751bf,-23.1875476,27.4723433,0,0,0.019091939621740946,0.15335157831596313,0.18369321654104706,0.02839568587799124,0.02839568587799124,0.647804623447796,0.000131
289,9cbb51b3-47f3-346d-899b-86bf785f03df,-22.41309,26.7138043,0,0,0.01545253863134658,0.07679763065157083,0.00458341821144836,0.002190765082574992,0.002190765082574992,0.4271578626883849,0.0003
290,c8247fad-3849-3dcb-8884-85781f6ce845,-24.5686508,25.8751598,0,0,0.0659268540063242,0.007760365899377672,0.0015278060704827868,0.0037917087967644088,0.002612066059993259,0.8295457016723572,0.0014
291,14617fc1-e7e5-35f3-99ac-445dc8304aa3,-19.1131438,22.292448,0,0,0.1921723047550862,0.2863837444702707,0.16220207781625587,0.05645433097404787,0.05645433097404787,0.7229410869234283,0.0003
292,55281bc4-92f2-3d78-8c4b-16675cae5960,-24.309268,25.9083523,0,0,0.1538691008889684,0.04941141186173803,0.04313505805663068,0.057128412537917096,0.057128412537917096,0.768827610203771,0.0282
293,346344c0-1bb1-364e-9d1d-195e266d3592,-25.4336431,25.5005611,0,0,0.08573474136388043,0.059327434955387275,0.03493583214503973,0.044573643410852716,0.044573643410852716,0.8921775438749103,0.0026
294,e9d33239-9944-3871-9733-80988aff64cd,-25.7075852,22.6884997,1,0,0.27325338583616726,0.5732173652245633,0.21761051130576492,0.35094371418941694,0.35094371418941694,0.4578431159341496,0.00056
295,825b8a3a-d46a-3c7a-b6ef-a93e36de66c3,-24.649585,25.3285597,0,0,0.18191038720840044,0.09050011246907103,0.06467712365043798,0.02047522750252781,0.02047522750252781,0.841397907922493,0.00167
296,e13a41ac-4500-3224-9a74-b7ccf0da438a,-24.9095358,25.627517,0,0,0.13209235725792015,0.04397540676314014,0.03615807700142596,0.05182002022244692,0.05182002022244692,0.905791270686993,0.0027
297,775ff405-792a-3e21-affa-4af173aeb0f6,-24.0666288,25.8641984,0,0,0.2688383747986397,0.09977881082702258,0.10521491138724792,0.01963262554769127,0.01963262554769127,0.7095883261205229,0.00314
298,26ff6a9d-54b1-35d8-81e7-845e9e9b5a4a,-25.2923515,25.4770773,0,0,0.1283336316448899,0.04256954337557173,0.0017824404155632513,0.06774519716885745,0.003033367037411527,0.8751930061109541,0.00063
299,83fd2cfb-8603-3f2d-9a28-6efee3c4a596,-20.6440052,26.6072982,0,0,0.12475389296581349,0.20686811126940097,0.01038908127928295,0.01718907987866532,0.01718907987866532,0.10684383359067481,0.614
300,880e9ff2-23d2-3637-baa0-4278005fc6a2,-19.5313425,21.1778337,0,0,0.6005011634150706,0.4474207093049412,0.5301487064575271,0.8720087630603303,0.8720087630603303,0.9408042102516148,0.00045
301,c0d671b0-9f41-344d-9cb4-f2426df8e900,-22.5514872,27.1125208,1,0,0.012111449197541913,0.0050985978855814665,0.0015278060704827868,0.0037917087967644088,0.002612066059993259,0.4883543918404628,0.0028
302,9a91be05-e9c7-3726-8d9e-d63e97c71177,-23.4309698,25.7446788,0,0,0.07976851023208638,0.23121766514208597,0.4230495009166837,0.11231884057971016,0.11231884057971016,0.5542265619903007,0.0036
303,94b3e98b-1fd0-3ab4-b03d-50c237b0759f,-23.1080451,26.8052163,0,0,0.01330469542390072,0.12995801154682468,0.001018537380321858,0.022076171216717226,0.001769464105156724,0.5694278320248789,0.000429
304,6023ed80-049a-3c8f-a09e-b60e8c2a11e2,-24.602951,25.7681719,1,0,0.11365670306067656,0.007516682912199146,0.01247708290894276,0.003286147623862488,0.003286147623862488,0.8348520105256291,0.00281
305,25774247-884e-392b-8e12-b9740f241b9e,-25.7504852,25.3385843,1,0,0.1508859853230714,0.13142010946989582,0.11871053167651253,0.08299629255139872,0.08299629255139872,0.8918513363634387,0.000173
306,66ce330d-3115-3673-9e61-5b7502d4da0e,-23.5687735,23.0649647,0,0,0.18340194499134893,0.5591024968133764,0.15731309839071095,0.2768790023592855,0.2603640040444894,0.3069395211273732,0.0033
307,c5b018cb-3ca0-3ce4-ae17-b495c4b32359,-21.9688875,27.8344577,0,0,0.00793508740528608,0.003430306665666942,0.0011203911183540437,0.001600943714189417,0.001600943714189417,0.388252180153535,0.0005
308,cc0441af-e3f2-3524-ac8a-ca6b4b414be8,-19.9844554,23.4243805,0,0,0.01408030547103395,0.0003936417485191573,0.0009166836422896722,0.0028648466464442197,0.001600943714189417,0.41789356936259053,0.000402
309,ba7e1ce9-8fb3-3326-930c-7217faf15741,-20.62771,22.3269673,0,0,0.26507964918560945,0.24297068306215797,0.36000203707476064,0.18141220087630602,0.18141220087630602,0.6706608964182416,0.0036
310,3a26bcae-70ca-3bd2-84cc-e4fb2a16cf01,-21.1483336,27.4954051,1,0,0.012708072310721318,0.004629976756391993,0.0014768792014666938,0.0027805864509605665,0.0025278058645096056,0.17830502577039342,0.0031
311,5e64c240-d5ac-3b62-a70f-f6d8dc312e73,-23.86203,25.3633513,0,0,0.25225225225225223,0.16403614006148312,0.2083927480138521,0.3196831816649815,0.3196831816649815,0.6516538720831612,0.00776
312,cb187d30-2444-3e21-88d5-ddffe68c1f23,-23.8516555,26.9251787,0,0,0.49394427540122904,0.2229136987328485,0.2363515991036871,0.32625547691270645,0.32625547691270645,0.7363155948937651,0.0015
313,39bb7a13-f436-305c-86c6-0a65dd8322cc,-23.1158909,26.819864,0,0,0.006204880377065807,0.13029541875984108,0.002037074760643716,0.009858442871587462,0.0034546680148297942,0.5728421373116153,0.0004
314,5bcbe50f-7a99-30c0-a32a-e331229f4eef,-22.820781,21.8724143,1,0,0.7518047849173677,0.6503524030891505,0.6247708290894277,0.17627232895180317,0.17627232895180317,0.28273492377617815,0.0281
315,e314b742-77a1-3249-b8f2-acd6b448026c,-24.6619416,25.88123,0,0,0.04510470735636298,0.0008997525680437882,0.000967610511305765,0.0028648466464442197,0.0016852039096730705,0.8519887784616054,0.000384
316,e1d4cc6e-4036-3e45-a415-c57436dbc983,-21.978556,27.8698073,1,0,0.01682477179165921,0.0043862937692134675,0.001375025463434508,0.005813953488372093,0.0023592854735422987,0.39390644368570993,0.00055
317,a3e20dc4-294d-32a1-b3c1-69e989eb5b97,-24.59501,26.2179713,0,0,0.14915577829485113,0.025905376021594068,0.050366673456915874,0.021317829457364344,0.021317829457364344,0.849509601374421,0.000168
318,2b0269fd-0ad2-39ca-b090-18b8d23ebebf,-24.1357811,25.5898263,0,0,0.1881749298967842,0.09355552223138638,0.12741902627826443,0.0009268621503201888,0.0009268621503201888,0.7192658156275146,2e-06
319,3a9affe4-902e-34e9-994e-eb0ae00e4589,-22.854826,22.2049513,1,0,0.7004951971839389,0.6301829496888357,0.5507231615400285,0.10810583080552748,0.10810583080552748,0.29119457190700915,0.0031
320,a0e08bea-13e5-354d-9360-8de0653038fa,-24.7689107,25.4289991,1,0,0.14676928584213353,0.07409837294743947,0.006365858627011612,0.010616784630940344,0.010616784630940344,0.8701911576017224,0.000353
321,550f99e5-dcc3-3308-ac2e-ea8009b68b90,-23.6647661,26.0748623,0,0,0.24204999701688443,0.18109394916397997,0.2069158688123854,0.32954162453656893,0.32954162453656893,0.6243611769567015,0.0047
322,ac849db8-9004-3c86-8c17-83541fa2b05b,-23.7355831,26.1814783,0,0,0.3183580931925302,0.16952837969558376,0.13928498675901407,0.22202561509942703,0.22202561509942703,0.6471522084248527,0.0009
323,e299b402-a32d-352c-a187-79fbc4b32b12,-24.3457231,23.1140783,1,0,0.006503191933655508,0.5119029766814127,0.4162762273375434,0.16852039096730706,0.16852039096730706,0.31033207924667816,0.00087
324,1c29b8b3-cf2b-3932-b48a-5db58bed1a63,-25.0907092,25.4607794,1,0,0.10172424079708847,0.046281022718752354,0.003819515176206967,0.014155712841253791,0.006403774856757668,0.8563599591153254,0.0013
325,de47742f-1d07-3af8-a9dc-c875a110c28f,-25.4726162,25.6059819,0,0,0.017481057216156552,0.058765089600359914,0.0026991240578529236,0.0037917087967644088,0.0037917087967644088,0.9170780505839115,0.000641
326,54fb2e81-a4e8-3d13-a6a2-3721a1035c3e,-24.1831991,25.2724923,0,0,0.15219855617206607,0.12499062757741625,0.04379710735383989,0.05519042804179306,0.05519042804179306,0.7293130069808408,0.00107
327,d4a5c4fb-9d14-3613-b47d-e6292c57fefb,-25.4312911,24.9582853,0,0,0.2582781456953642,0.14403539026767642,0.166123446730495,0.26238624873609706,0.26238624873609706,0.7832242350433856,0.00567
328,ec74a792-46f6-3950-a1ca-9ab942d578f5,-25.8126426,24.7980038,0,0,0.3954417994153093,0.20919247207018074,0.09849256467712365,0.2759521402089653,0.16304347826086957,0.7970336863623513,0.00209
329,043100f3-8256-3b24-befe-6084ab0c48e5,-24.3688844,26.1442225,0,0,0.006741841178927271,0.043169378420934254,0.0026481971888368304,0.00859453993933266,0.004465790360633637,0.7927929887132201,0.0007
330,b8fe6011-01c3-306a-b16f-a4b0c9617f67,-24.4014731,26.1170783,1,0,0.026430403913847617,0.03469670840518858,0.0017824404155632513,0.0022750252780586455,0.0022750252780586455,0.7991649087706327,0.000395
331,e14f42af-fd97-3059-9a5c-4f2ca709fed3,-21.9863758,27.8371886,0,0,0.004951971839389058,0.0019494638974282077,0.0004074149521287432,0.0025278058645096056,0.0007583417593528818,0.3922971532957833,0.000432
332,6120d57a-75fb-3e56-a394-778891029f3b,-22.793353,27.2292513,1,0,0.1658015631525565,0.059158731348879064,0.1025667141984111,0.04828109201213347,0.04828109201213347,0.5477024117608682,0.0
333,e665195f-851e-39f2-9229-2abeb8bbf648,-24.5787876,26.4635077,0,0,0.23035618399856808,0.07261753017920074,0.17646160114076187,0.08897876643073813,0.08897876643073813,0.85960028706261,0.000612
334,ac7495b3-ea9d-3b08-bec8-cd42aae38a72,-20.801208,27.5555293,0,0,0.12558916532426465,0.07571042963185126,0.045783255245467516,0.05375800471857095,0.05375800471857095,0.1277428614922906,0.0073
335,65a161fc-9df1-37f9-84d3-be6b16adb7b4,-26.8676582,20.7084253,1,0,0.021299445140504743,0.9944890155207319,0.9833978407007538,0.20020222446916078,0.20020222446916078,0.7251158036665725,0.0014
336,6fdf8d97-dc75-3fb2-a96c-12327bb807e3,-24.6619797,25.9138353,0,0,0.027146351649662906,0.00020619329684336808,5.0926869016092884e-05,0.0010111223458038423,0.00016852039096730702,0.8530108953308833,0.0001
337,28135533-5858-355f-8166-c50122c15ed0,-19.998611,23.4119457,1,0,0.0056082572638864025,0.003692734498013047,0.001069464249337951,0.005476912706437479,0.0018537243006403776,0.4202640106126177,0.000496
338,665b4bbc-2758-3d61-93e3-548c174270e3,-23.5222281,27.0409303,0,0,0.30212994451405045,0.20415010872010203,0.21531880220004074,0.14922480620155038,0.14922480620155038,0.6814474914642369,0.0
339,237237d1-85ca-3600-9332-3b60995f4d21,-24.597419,23.7566793,1,0,0.1516019330588867,0.38425058109020027,0.4466795681401508,0.15470171890798787,0.15470171890798787,0.4633886436291673,0.00034
340,3945e6d2-27d0-3a37-8f95-ca2306fb1e51,-23.1233697,26.1855698,0,0,0.2146053338106318,0.21179800554847422,0.22820330006111222,0.160262891809909,0.160262891809909,0.5077528651893092,0.000386
341,a061987b-e682-3878-9484-13ba58ea2944,-23.4140631,27.1395179,1,0,0.263528429091343,0.18175001874484523,0.21552250967610512,0.02435119649477587,0.02435119649477587,0.6726181414870713,0.00156
342,2610efb3-f479-33ec-8ee8-900d381daf9a,-21.97624,28.4286263,1,0,0.0033410894338046656,0.11252530554097626,0.00458341821144836,0.006066734074823054,0.006066734074823054,0.46469347367505387,0.000145
343,4f5b45e8-644b-3ae9-b07c-ba2d87b9d134,-24.903077,24.6273726,1,0,0.3573175824831454,0.20756167054060137,0.17009574251375026,0.07574991573980452,0.07574991573980452,0.6683122023356458,0.0024
344,31fa8839-a4a3-3ab1-a1de-1164e2ec2e86,-22.8042279,27.1887536,0,0,0.1655032515959668,0.05816525455499739,0.08616826237522919,0.06572295247724975,0.06572295247724975,0.5497901398342866,0.00225
345,89cd9916-e6b4-3026-814a-0c88dd0f32c1,-18.5795999,21.9918823,0,0,0.17039556112403792,0.40509484891654807,0.14279894072112448,0.05923491742500843,0.05923491742500843,0.839723376030272,0.00025
346,56eea9da-0639-38c3-ab7d-64700f7a594e,-25.2743121,23.2809303,1,0,0.03872084004534335,0.45270675564219853,0.24251375025463434,0.010869565217391306,0.010869565217391306,0.4535371767827241,0.00045
347,aaebef50-0772-3846-956f-a3e649b7ccf8,-24.9556816,25.1131637,0,0,0.13990812004057035,0.11766139311689289,0.08061723365247506,0.07221098752949108,0.07221098752949108,0.7739164473827285,0.0044
348,06a30644-aba8-3eea-810c-19a56b0104c5,-23.1091127,27.134933,0,0,0.18739931984965097,0.1185236559946015,0.14646567529028318,0.09049544994944389,0.09049544994944389,0.6227301393993433,0.000597
349,14650b72-a8ad-33dc-8c2e-6fb2c29da5f3,-24.8907139,25.8689511,0,0,0.04116699480937891,0.02275624203344081,0.011305764921572623,0.021402089652847997,0.01879002359285474,0.9062914555379162,0.000587
350,515e676a-cff2-313c-af77-eb47e6a33592,-21.4058407,27.4530538,0,0,0.027086689338344964,0.0448189247956812,0.0001527806070482787,0.0007583417593528818,0.0003370407819346141,0.2292803862296936,1e-06
351,3a607514-61a4-3978-8d7b-67b40c152611,-20.362647,22.9551263,0,0,0.16246047371875186,0.11031341381120194,0.0015278060704827868,0.01002696326255477,0.002612066059993259,0.5221059956940609,0.00011
352,11237960-d310-3d89-aef0-4852e4a404a8,-19.8836699,21.0797133,0,0,0.7380227910029235,0.45510609582364864,0.6431045019352211,1.0,1.0,1.0,0.001
353,5e1ab1c6-7a41-3e08-b35c-f974300dff92,-24.3814186,26.1701532,0,0,0.01079887834854722,0.04391917222763741,0.0012731717254023224,0.0018537243006403776,0.0018537243006403776,0.7970119391949199,0.00013
354,b813f1d6-951a-35fa-b166-56977b076b51,-21.956092,27.8681583,0,0,0.022015392876320025,0.006598185498987779,0.001069464249337951,0.026120660599932594,0.0018537243006403776,0.3889263423439097,0.00225
355,2d5f556c-a1f0-3059-bae5-bfa00bdb2595,-24.3983191,25.4923323,0,0,0.01974822504623829,0.06558821324135865,0.0029537584029333875,0.005392652510953826,0.0049713515335355575,0.7813104843094187,0.00191
356,69655c4c-7954-3954-bf66-f42264918f96,-24.6323564,25.913375,0,0,0.023805262215858238,0.0003748969033515784,0.0012731717254023224,0.0012639029322548028,0.0012639029322548028,0.8459213187482331,0.000526
357,d81851f1-081e-3981-a42a-43b12cda2437,-25.2049259,25.690159,1,0,0.016049161744525982,0.0029054510009747327,0.001884294153595437,0.009184361307718235,0.003201887428378834,0.9777309005502034,0.00204
358,5db132b5-61ec-38e5-8609-cc0fbc7af208,-21.0767065,27.3457371,0,0,0.11156852216454864,0.037152283122141416,0.01970869830922795,0.005476912706437479,0.005476912706437479,0.1469021159993911,0.00198
359,faaaeeaa-d517-3acd-a937-235492f75ffc,-24.6765057,25.9075758,0,0,0.03597637372471809,0.0007310489615355779,0.0004074149521287432,0.0010111223458038423,0.0007583417593528818,0.8562729704455995,8.7e-05
360,a587eb1a-e760-39de-9564-c20a74f683ad,-24.41076,26.1486273,0,0,0.022134717498955906,0.03662742745744921,0.0027500509268690164,0.00926862150320189,0.004634310751600945,0.8028401800665464,0.000323
361,b1bf9f41-96a8-305c-8fe0-b6437ad416aa,-21.04634,22.4011093,1,0,0.4303442515363045,0.286683661992952,0.4806477897738848,0.019969666329625886,0.019969666329625886,0.668616662679686,0.000796
362,f6f5f50c-a2fd-30f4-ba97-876fd2978276,-24.6549661,25.9696593,1,0,0.013901318537080126,0.0011996700907250506,0.000458341821144836,0.0008426019548365354,0.0008426019548365354,0.8531848726703347,0.00552
363,f390017f-c4a2-36c5-a7da-71a53da7cca8,-20.8954373,27.0700127,0,0,0.1143129884851739,0.10262802729249458,0.02531065390099817,0.027384563532187396,0.027384563532187396,0.08948959398038406,0.0004
364,48b9e71b-031a-342a-a6f6-bab1cfba67e9,-26.6666002,21.8821883,1,0,0.0237455999045403,0.7750618579890531,0.44443878590344277,0.09395011796427369,0.09395011796427369,0.6407367940325772,0.000565
365,2dda0a07-7740-364d-bd78-d42149338c88,-24.8556582,25.6698912,0,0,0.0983831513632838,0.03139761565569469,0.058209411285394176,0.06690259521402091,0.06690259521402091,0.8935041210882283,1.0
366,7212f5ef-86c6-3b33-848f-8713169b5a1d,-25.5586295,25.2358945,0,0,0.08728596145814688,0.1120379395666192,0.11290486860867796,0.04052915402763735,0.04052915402763735,0.8512276276015049,0.0024
367,3ffa8999-b338-3d9e-a261-4e1a2901f37c,-25.5438656,25.4935517,1,0,0.07058051428912356,0.07989053010422136,0.022153188022000413,0.028227165487023934,0.028227165487023934,0.9010068938520758,6e-05
368,b6fabc70-bd07-3b07-81bc-324a94905a48,-25.5521192,25.5470454,0,0,0.06849233339299564,0.07769738321961463,0.03885720105927888,0.028311425682507586,0.028311425682507586,0.9125328925907401,0.0001
369,4bcc4b1d-9c47-3c5e-bae6-fff4eb292c47,-20.863377,27.2268683,0,0,0.014975240140803054,0.08358326460223439,0.01614381747810145,0.01002696326255477,0.01002696326255477,0.0890546506317552,0.0007
370,987c6af7-c36b-3db0-a6f7-8bb2d86c4d69,-22.5282375,27.1263997,0,0,0.01998687429151005,0.00746044837669641,0.00193522102261153,0.003538928210313448,0.003286147623862488,0.4828306113128765,0.0021
371,303bef32-b5d9-3bd4-8c4f-3cde657ff782,-24.9725946,25.3591227,0,0,0.008889684386373128,0.07587913323835946,0.006518639234059891,0.014492753623188406,0.010869565217391306,0.8269360415805842,0.0245
372,6c4a6458-e678-376c-ac16-5aebe7594f5b,-24.8798232,24.8985988,1,0,0.24974643517689873,0.161149433905676,0.08621918924424526,0.05999325918436131,0.05999325918436131,0.7235500076115086,0.00338
373,beb0ba54-8bf4-3ba7-94b1-1a7fa23bd466,-23.4781331,25.6582653,0,0,0.1408627170216574,0.22281997450701063,0.44830922794866573,0.19809571958206942,0.19809571958206942,0.5629036817954463,0.0177
374,8a815fcb-a8f6-32d2-b4cf-a504db5125fb,-22.3820817,26.702249,1,0,0.005787244197840224,0.0812776486466222,0.004074149521287432,0.001600943714189417,0.001600943714189417,0.4200465389383033,0.000583
375,d03d2b20-0ceb-3a20-b227-e00c73abf48f,-24.6131112,25.8643859,1,0,0.05572459877095638,0.0015745669940766293,0.0013240985944184152,0.0031176272328951806,0.0022750252780586455,0.8398321118674293,0.000228
376,338a3150-9138-3b74-823d-1e1b46e0ed0b,-24.6682467,25.9252505,0,0,0.024580872262991466,0.0008060283422058935,0.00020370747606437154,0.00042130097741826763,0.00042130097741826763,0.8548594045625558,0.000243
377,56bdc420-80de-3c20-accf-922a2d853d96,-24.6905555,25.8958214,1,0,0.04749119980908059,0.0008810077228762093,0.0011713179873701367,0.001769464105156724,0.001769464105156724,0.8592523323837071,0.0002
378,39a72330-463f-381c-bd6f-8d462a39b538,-24.8631331,24.8267833,0,0,0.2598890281009486,0.17500187448451682,0.0853534324709717,0.003286147623862488,0.003286147623862488,0.7072613792053586,0.00173
379,8e8e1b39-0fcd-3fc9-be48-c13f33b50631,-24.544858,25.6159153,0,0,0.1033947855139908,0.03469670840518858,0.01741698920350377,0.05721267273340074,0.028901247050893163,0.81797620859883,0.00053
380,e01de1ab-c4e0-3b3e-bf60-5337c2ef9b7d,-21.1701528,27.4900249,1,0,0.004713322594117296,0.004442528304716204,0.0017824404155632513,0.0031176272328951806,0.003033367037411527,0.1821325272383272,0.000607
381,7c1462d4-8b55-3012-ae8f-ba3d302c37c9,-20.631527,22.6035643,0,0,0.12988485173915637,0.1988453175376772,0.23553676919942965,0.06134142231209977,0.06134142231209977,0.6088336994106517,0.0009
382,e0362b14-76fd-3ffb-a503-4c9d4a0a7df0,-22.274953,20.0650643,1,0,0.018853290376469184,0.7981929969258456,0.031320024444897135,0.003286147623862488,0.003286147623862488,0.5572711654307027,0.000346
383,045dcddd-0546-313b-a2a8-18876b051943,-22.5579159,27.1100094,1,0,0.012708072310721318,0.005510984479268202,0.00193522102261153,0.005476912706437479,0.003286147623862488,0.4898984407280952,0.00623
384,d1b35fb3-44bc-3502-810a-cd242e1be0cf,-24.3955183,25.5388378,1,0,0.015989499433208043,0.05820274424533255,0.003666734569158688,0.004044489383215369,0.004044489383215369,0.7810712654676729,0.000506
385,1e475454-8fcb-3834-81e2-1e4f9397dfd2,-23.2643569,26.5870591,0,0,0.1588210727283575,0.17869460898252987,0.07837645141576696,0.12428378833838895,0.12428378833838895,0.5761912010960573,1.0
386,b1510157-45e0-3a19-990a-250f5b98aa92,-20.0029235,23.4328562,1,0,0.018793628065151245,0.0035802654270075734,0.0014768792014666938,0.0022750252780586455,0.0022750252780586455,0.41541439227540616,1.3e-05
387,54d64109-ddec-3a84-bd01-6e896632cbb0,-24.5612599,25.9059583,0,0,0.05870771433685341,0.0042550798530404145,0.0035139539621104094,0.01120660599932592,0.005898213683855747,0.8287410564773938,0.084
388,fee02ff9-ba45-3fca-a433-19e1fea83724,-24.9067636,25.6265963,0,0,0.13191337032396633,0.04380670315663194,0.03732939498879609,0.05342096393663633,0.05342096393663633,0.9051171084966183,0.0004
389,2f0a03ea-bf35-3409-8091-23984f1c76a6,-21.8834591,27.7299194,0,0,0.014020643159716007,0.03031041463597511,0.0052454675086575685,0.013565891472868219,0.008763060330299968,0.3595894134788944,0.00118
390,7b180e7a-5df1-3ab6-be38-cd64e009fb58,-19.9416349,23.4982823,0,0,0.06819402183640594,0.01055334782934693,0.0011203911183540437,0.0020222446916076846,0.001937984496124031,0.40273579366287543,0.0002
391,d22e29c5-5510-36ed-bc53-e39ba28c5f80,-25.4647283,25.3872433,1,0,0.03937712546984069,0.07794106620679314,0.02704216744754533,0.03075497135153354,0.03075497135153354,0.8721266555031209,0.00493
392,bac47d2b-162f-37d9-b971-8eebf3c05d94,-24.4729219,25.8874422,1,0,0.11675914324920947,0.01889480392891955,0.00387044204522306,0.004802831142568251,0.004802831142568251,0.807102624883109,0.000552
393,593345ca-4457-3661-be4f-bd664e59c2fe,-25.152573,25.5099213,0,0,0.11282143070222539,0.03274724450776037,0.006926054186188633,0.01263902932254803,0.011543646781260533,0.871104538633843,0.0001
394,0656dad5-0d8e-3732-9702-656b56105bab,-25.5420026,25.1362707,0,0,0.14450211801205176,0.12461573067406466,0.12370136484008963,0.12335692618806877,0.12335692618806877,0.8298501620163975,0.00182
395,2b3ec872-52ea-35eb-aa36-320d1e3ef93c,-20.588958,27.6500513,0,0,0.025595131555396455,0.1222726250281173,0.01848645345284172,0.0061509942703067075,0.0061509942703067075,0.13054824609094665,0.000645
396,247e14a4-67de-3e99-aecb-e6114da809f3,-24.6794713,25.9018404,0,0,0.03985442396038422,0.00026242783234610483,0.000509268690160929,0.0006740815638692282,0.0006740815638692282,0.8567949024639542,0.000118
397,9acae37d-607a-3588-9aa2-f73cf6ec54ec,-20.319302,23.8858483,0,0,0.23650140206431597,0.10470870510609584,0.1954573232837645,0.1301820020222447,0.1301820020222447,0.310571298088424,0.000362
398,c75fbcf0-e400-377b-8bdf-ddba903141a1,-24.9900393,25.3468369,0,0,0.007636775848696378,0.07561670540601335,0.0005601955591770218,0.0025278058645096056,0.0010111223458038423,0.825500728530109,0.00014
399,7d89538d-0007-37e0-84f7-da89053cb346,-24.1393216,26.0060783,0,0,0.17976254400095457,0.08195246307265504,0.09864534528417195,0.1270643747893495,0.1270643747893495,0.7323576104212426,0.00047
400,0c0e75ca-8d83-3680-9c41-fc117c932df1,-25.7935092,24.9024743,0,0,0.33506354036155356,0.19140361400614836,0.04486657160317784,0.18655207280080888,0.07431749241658242,0.8139529826240133,0.00571
401,779ff61b-6fb7-39a0-a8a8-59c14011bf97,-21.703303,21.6485063,1,0,0.001073921603722928,0.48637249756317025,0.000509268690160929,0.005139871924502865,0.0009268621503201888,0.5509862340430159,0.000129
402,a8efb6e0-be7d-347e-9be4-e0cf9f055a3c,-22.7937906,27.7554762,0,0,0.00513095877334288,0.13874934393041918,0.11265023426359749,0.01525109538254129,0.01525109538254129,0.5679490246395408,0.0012
403,a8578a46-4e48-3d9d-949a-8fdf53db60ea,-24.8591578,25.8633131,0,0,0.023089314480042956,0.016420484366799132,0.0014768792014666938,0.005898213683855747,0.0025278058645096056,0.8985929582671857,0.0004
404,4c3a0cc5-ecfb-3785-ab80-99d2eac162bd,-24.9975281,25.3576606,1,0,0.014676928584213352,0.07304866161805505,0.0002546343450804645,0.003286147623862488,0.0005055611729019212,0.8282843659613336,0.000332
405,42fbd74d-5c55-393f-9130-2748fa25bbef,-25.5476723,25.3729811,0,0,0.015273551697392756,0.0926557696633426,0.04960277042167448,0.0027805864509605665,0.0027805864509605665,0.877302481351804,0.000333
406,67c12362-9288-3cb2-b079-13070e512b91,-23.0354027,27.5334978,0,0,0.10798878348547222,0.13380070480617834,0.11056223263393768,0.13068756319514663,0.13068756319514663,0.6137268120827262,0.0007
407,25795470-3f45-39a8-893a-a7d7e6f76179,-24.258612,25.5432993,0,0,0.10321579858003699,0.07657269250955989,0.05561214096557344,0.07372767104819683,0.07372767104819683,0.7481678011439011,0.001292
408,44393602-8e11-3e53-8456-3c38e62b4946,-25.5654326,25.5766729,1,0,0.06360002386492453,0.07880332908450177,0.043389692401711144,0.016683518705763397,0.016683518705763397,0.9197529521779788,0.000694
409,8eaa5d09-caa5-35f2-a10e-b015dc35709e,-25.2101314,25.6798789,1,0,0.011216514527772805,0.002755492239634101,0.001069464249337951,0.002443545669025952,0.0018537243006403776,0.9788182589217755,0.000278
410,0ec669be-0f7a-3add-bcb7-d84bbf06f3be,-24.4061216,26.0775767,0,0,0.048803770658075285,0.030610332158656373,0.0031065390099816663,0.002443545669025952,0.002443545669025952,0.7984689994128266,0.00029
411,193a3402-0e93-3d6f-94bc-2f12e2f083da,-24.8135446,25.3094959,1,0,0.11031561362687188,0.0967421459098748,0.042880423711550215,0.07305358948432761,0.07103134479271993,0.8067981645390688,0.000167
412,6c38c508-8b92-3b17-8c63-36065c2a81c1,-25.6413379,25.1352782,0,0,0.16395203150170037,0.13762465322036443,0.1025667141984111,0.0810583080552747,0.0810583080552747,0.8403540438857839,0.0106
413,a68d7327-04f6-3811-b68b-840ca56d3283,-25.1954091,25.1779783,0,0,0.17487023447288347,0.0941741021219165,0.07465878997759218,0.09732052578361983,0.09732052578361983,0.8056238174977709,0.0064
414,b52d3945-e67a-379f-9f27-964c3e1ccde8,-19.9850805,23.4114334,0,0,0.007338464292106676,0.002792981929969259,0.0007639030352413935,0.0013481631277384564,0.0013481631277384564,0.42078594263097235,0.0008
415,87b72016-5676-34eb-8a29-a5ef37629b33,-24.5160064,23.9222789,1,0,0.08006682178867609,0.35645197570668075,0.357964962314117,0.023424334344455684,0.023424334344455684,0.4931605158428115,0.000595
416,51f32da0-434f-38a4-88c3-7e690efde9d2,-22.102198,21.7704603,1,0,0.2749239305530696,0.5338719352178152,0.21949480545936034,0.17163801820020222,0.17163801820020222,0.45449405214970756,0.0031
417,ad551e07-889c-3b76-84ce-aa8e3c5f9436,-18.7219919,22.7401293,0,0,0.03663265914921544,0.2934318062532804,0.48136076594011007,0.33257499157398046,0.33257499157398046,0.6739664658678208,0.00266
418,5538d213-61af-3944-9044-cb3740c84479,-24.6310117,25.9260326,0,0,0.016645784857705386,0.0003936417485191573,0.000458341821144836,0.0025278058645096056,0.0008426019548365354,0.8460083074179588,0.000325
419,3c0eca12-0704-32b0-8f94-6c3a3574c11f,-21.961075,28.4092273,1,0,0.013603006980490424,0.10885131588813078,0.004990833163577103,0.008257499157398046,0.008257499157398046,0.4590609573103104,0.0
420,cd8aa47f-d64f-3695-9d2d-4a62cdf4dba6,-21.9866075,27.8211487,1,0,0.01318537080126484,0.0049298942790732565,0.00229170910572418,0.009184361307718235,0.003875968992248062,0.3907748515755823,0.0018
421,55fc7a97-9bb1-3117-a041-f76be3599901,-19.1139429,22.2905355,0,0,0.19103872084004533,0.2865711929219465,0.1613363210429823,0.05687563195146613,0.05687563195146613,0.7232672944348999,0.00121
422,676ae93e-cd80-3162-86b5-fbea98b04ae5,-24.470647,25.7871493,0,0,0.14963307678539464,0.015295793656744399,0.023833774699531476,0.03816986855409505,0.03816986855409505,0.8036665724289411,0.00201
423,dc78f0da-761a-3298-bfb2-47922caf62f3,-18.8401309,22.5761663,0,0,0.09748821669351469,0.2893454300067482,0.37421063353025064,0.15107853050219078,0.15107853050219078,0.6919948676684862,0.00273
424,33e1ad64-9f24-3f9f-81a5-5825f8c1f303,-19.863915,22.3880773,0,0,0.3766481713501581,0.20036364999625106,0.3014870645752699,0.23323222109875297,0.23323222109875297,0.6556118565556837,0.003
425,e8c381e8-ae4e-362e-8701-ae61db519a96,-18.8656049,22.2819403,0,0,0.09116401169381301,0.3225800404888656,0.29206559380729274,0.002443545669025952,0.002443545669025952,0.7491681708457474,0.0065
426,21e6c213-1f54-3a87-9376-b73b5b4ac3d0,-18.277116,21.8350698,0,0,0.04755086212039853,0.47225762915198327,0.02531065390099817,0.04027637344118639,0.04027637344118639,0.9070961007328796,0.0003
427,7758bfa3-21a4-34c2-874a-1fd15f1a75a0,-24.6325568,26.3992496,1,0,0.2251059006025893,0.06077078803329086,0.1391831330209819,0.030417930569598926,0.030417930569598926,0.8681251766957354,0.000316
428,d70043d6-db8d-304e-bb9c-3afb703c012b,-17.9012749,25.2217253,0,0,0.07117713740230296,0.553066656669416,0.05347321246689754,0.010448264239973037,0.010448264239973037,0.5515516603962334,0.0011
429,98029241-d1fd-34bb-83c7-16e863029d2e,-21.1787983,27.5177894,1,0,0.013781993914444245,0.0003186623678488416,0.00030556121409655736,0.001600943714189417,0.0005898213683855748,0.1871996172498532,0.00394
430,4f79ba5c-cd7d-3736-bcb4-88693577df88,-22.4405484,26.7207562,0,0,0.034067179762543996,0.07376096573442305,0.004736198818496639,0.006488035052241322,0.006488035052241322,0.4329426092251485,0.00586
431,6c99859d-29a7-3275-832b-852f12bac260,-21.090594,24.4782303,0,0,0.5655987112940756,0.29804303816450484,0.04664901201874109,0.010785305021907651,0.010785305021907651,0.19926929517430358,0.00044
432,f92b84c2-f232-30da-9047-25f0fa8c43ab,-22.4253698,26.7434198,0,0,0.03162102499850844,0.07055559721076705,0.0031574658789977595,0.0005898213683855748,0.0005898213683855748,0.43394297892699474,0.000379
433,bf869c75-d0c3-3a37-8355-c236e4018e92,-21.1416518,27.4973121,1,0,0.01706342103693097,0.005473494788933045,0.0015787329394988797,0.002190765082574992,0.002190765082574992,0.1771741730639584,0.00052
434,0eabdc30-4696-3735-8066-7c48a2c0cc68,-24.6400305,25.9192951,0,0,0.01968856273492035,0.00020619329684336808,0.001069464249337951,0.0012639029322548028,0.0012639029322548028,0.8479438053193572,0.0003
435,0d7db491-5442-3f2b-9bee-6e48f1f86814,-21.9864179,27.8467744,1,0,0.005071296462024939,0.0008622628777086303,0.0007639030352413935,0.0011796427367711494,0.0011796427367711494,0.3932540286627667,0.000227
436,8f979687-548f-37e0-85bc-e8e846abe331,-24.6665793,25.90868,0,0,0.03144203806455462,0.0007685386518707356,0.00035648808311265025,0.0011796427367711494,0.0006740815638692282,0.8539460235304352,8.1e-05
437,c6fe72b9-564d-322d-a578-1347588f0390,-23.1264906,26.8117287,1,0,0.014736590895531292,0.1329384419284697,0.0009166836422896722,0.011290866194809573,0.001600943714189417,0.5739077485157558,0.0002
438,17d4ce24-0084-3d96-980d-49da3e02fba7,-18.3172984,21.884597,0,0,0.04086868325278921,0.45951113443802966,0.03447749032389489,0.05788675429726997,0.057128412537917096,0.8923515212143618,0.002
439,18093958-6253-39b5-ac52-1500aa97410e,-20.580297,26.4944613,1,0,0.048028160610942054,0.23256729399415166,0.03758402933387656,0.013987192450286484,0.013987192450286484,0.12883021986386273,0.000916
440,fbed6e44-c034-3798-ad2d-43726a9fffd7,-25.1068466,24.8741698,0,0,0.29544776564644115,0.15275174327060062,0.21465675290283154,0.22834512976070104,0.22834512976070104,0.7357501685405476,0.00231
441,459364ea-254d-3b67-971a-9050f524790a,-24.6118724,25.9324523,0,0,0.021717081319730325,0.0005248556646922097,0.0012731717254023224,0.0009268621503201888,0.0009268621503201888,0.8416588739316704,0.000469
442,3d9e98bc-61bd-3ea9-ae49-ed1329d0dfc8,-25.3899136,25.1353867,0,0,0.16967961338822266,0.10973232361100699,0.0724180077408841,0.11863835524098416,0.11863835524098416,0.8143879259726421,0.00047
443,bc9536fc-0adf-3b87-94ea-977b2a68739c,-21.170503,24.6023383,0,0,0.4799236322415131,0.326703906425733,0.12604400081482992,0.03370407819346141,0.03370407819346141,0.17084574734140878,0.0009
444,0def5f94-3e47-3472-b6cc-e2d0e5177749,-20.588971,27.6498363,0,0,0.02553546924407851,0.12225388018294973,0.018537380321857814,0.006235254465790361,0.006235254465790361,0.13050475175608378,0.000623
445,a7476f96-22e7-34a7-9032-c1b356da60d3,-20.200612,23.2240313,0,0,0.17606348069924227,0.048661618055034876,0.10445100835200653,0.008257499157398046,0.008257499157398046,0.4598438553378423,0.000452
446,b4e92d32-799f-3f40-9862-a78f718ccf15,-24.6082153,25.9421459,0,0,0.021418769763140624,0.00033740721301642055,0.000458341821144836,0.0020222446916076846,0.0008426019548365354,0.8411151947458844,0.0003
447,0de268e7-3ebc-3829-aa65-af07ea1e05d5,-25.3237654,24.4792262,0,0,0.4611300041763618,0.22759991002474325,0.23691179466286413,0.4495281429052916,0.3920626895854399,0.6777722201683232,0.00101
448,e11fbdf1-61f3-3a72-b98a-dfbd96c7be70,-22.020755,26.7905703,0,0,0.2485531889505399,0.12193521781510089,0.15639641474842128,0.2082912032355915,0.2082912032355915,0.36585259769914974,0.0231
449,7550f09a-841c-3ef0-b299-f2ac3547eadb,-22.6126296,27.3315306,0,0,0.1274386969751208,0.04907400464872161,0.106895498064779,0.11518368722615437,0.11518368722615437,0.5064262879759912,0.00181
450,b1c2e07c-46ff-3a90-9644-7d8c9240c170,-23.98127,25.2430113,0,0,0.1468886104647694,0.1575691684786684,0.1304237115502139,0.21587462082912032,0.21587462082912032,0.6809473066133136,0.00712
451,55d61803-9a3c-3625-8555-3c4160da06fe,-20.1133617,26.2464682,0,0,0.07380227910029233,0.329684336807378,0.0595335098798126,0.051314459049545,0.051314459049545,0.20775069047256595,0.00071
452,170900b9-809b-3c48-9378-7c1ad22e7254,-20.582424,27.6081623,0,0,0.03162102499850844,0.12208517657644152,0.03249134243226727,0.01289180990899899,0.01289180990899899,0.12093599808624927,0.00116
453,a5b3db4d-cb7b-3162-a1b6-0f551a42bb31,-20.85382,27.2497613,0,0,0.006085555754429926,0.08223363575016872,0.018028111631696885,0.013902932254802831,0.013902932254802831,0.08914163930148097,0.00117
454,5544fc2a-d829-3abd-b9d2-05ddfb23e400,-22.7679,26.7898713,0,0,0.22606049758367638,0.07452950438629379,0.13322468934609902,0.007162116616110549,0.007162116616110549,0.5019246243176827,0.0174
455,8b5e400e-6298-3990-9263-38c282015a12,-21.230077,26.4255723,0,0,0.4110733249806097,0.2119104746194797,0.1883275616215115,0.0489551735760027,0.0489551735760027,0.22329991518604703,0.000399
456,5102d050-9987-3c46-a27b-b0e341dd706c,-24.3233556,25.2280707,0,0,0.17099218423721735,0.11773637249756319,0.06763088205337137,0.08215369059656219,0.08215369059656219,0.7634125655133419,1e-05
457,ccef566c-acdc-37e7-90fb-7907ab462e13,-24.636022,25.9355609,1,0,0.010202255235367818,0.0007872834970383145,0.0012222448563862297,0.0008426019548365354,0.0008426019548365354,0.8475306091381598,0.0021
458,6b697101-b7b4-3d07-9bcf-e7782743bbad,-21.368892,27.4507423,0,0,0.05041465306365968,0.03792082177401215,0.001018537380321858,0.002696326255476913,0.001769464105156724,0.22086423243372552,0.0008
459,5bdf27c8-accd-3266-9509-991a7134e440,-23.5993055,26.26801,0,0,0.2981325696557484,0.20092599535127845,0.1333265430841312,0.2191607684529828,0.2191607684529828,0.6217080225300655,0.00503
460,04c37dd2-13f2-3a3b-8a7b-a15033d05a49,-20.3114022,22.4472077,0,0,0.19658731579261382,0.19453400314913402,0.26588918313302096,0.23955173576002697,0.23955173576002697,0.6367135680577606,0.00039
461,bcd47d12-5ce7-3877-bcef-ef79c05c3596,-20.937811,27.0807883,0,0,0.11652049400393771,0.09627352478068532,0.04970462415970666,0.003370407819346141,0.003370407819346141,0.09973250984059326,0.00026
462,849db5dd-88b4-3c0e-add9-bece405b6dfe,-19.862381,26.4876294,0,0,0.2964620249388461,0.33630126715153336,0.24241189651660214,0.31142568250758346,0.31142568250758346,0.17806580692864757,0.00631
463,c5ca9628-8561-32f7-b977-5edc690fa906,-24.6599755,24.8016189,1,0,0.17606348069924227,0.19044762690260184,0.019250356488083112,0.003370407819346141,0.003370407819346141,0.689624426418459,0.0014
464,fbbaa3bb-71bb-37ad-8980-40a22a7336ab,-24.8890151,25.0057173,0,0,0.2122188413579142,0.1420109469895779,0.10658993685068242,0.03538928210313448,0.03538928210313448,0.7467759824282887,0.00191
465,097dd00e-72f3-34cf-88c6-53ab42543e90,-21.1898337,27.3814004,1,0,0.07320565598711293,0.02598035540226438,0.0050417600325931965,0.0190428041793057,0.008426019548365353,0.17506469782310854,0.00098
466,0c9fcc0e-e10b-36e5-aa79-e0b47e0f245f,-24.6213431,25.9248959,0,0,0.020344848159417697,0.000712304116367999,0.0001018537380321858,0.0010111223458038423,0.0002527805864509606,0.8436813605027945,0.000457
467,ad7348ae-c2d0-3a2e-a902-c54a0b32facd,-20.5004646,26.9958109,0,0,0.2873336913072012,0.1706343255604709,0.022662456712161338,0.03269295584765757,0.03269295584765757,0.014440119174477524,4.2e-05
468,5cc17e9f-a48e-31cd-9a8a-9037a3a075a5,-24.6663186,25.8874404,0,0,0.04265855259232742,0.0011059458648871564,0.0016805866775310653,0.0012639029322548028,0.0012639029322548028,0.8532283670051977,0.00024
469,bc14a6e8-3c5d-3153-8b40-6164d9663148,-24.621606,25.9448479,1,0,0.012529085376767496,0.0006560695808652621,0.0006111224281931148,0.0006740815638692282,0.0006740815638692282,0.8443990170280322,0.0006
470,48612667-5130-3a39-bab3-014fc609d33d,-23.8668721,23.67348,1,0,0.23447288347950596,0.4284134363050162,0.34151558362191897,0.4931749241658241,0.4931749241658241,0.4246134440989061,0.0042
471,babb07df-770a-31d9-bae1-4ad8e35d6249,-24.6190663,25.9322306,0,0,0.018018018018018018,0.000712304116367999,0.0008657567732735793,0.0008426019548365354,0.0008426019548365354,0.8433769001587543,0.0001
472,dcb59f24-113e-3fb8-ae61-9aa2aee213eb,-20.0426916,25.4831202,0,0,0.45235964441262455,0.398684111869236,0.06406600122224486,0.13009774182676104,0.10608358611391978,0.06156623099841246,0.0094
473,b296ccbc-ade2-38d0-9af1-f1897025c1f1,-22.8891907,27.5232668,1,0,0.15774715112463455,0.11066956586938594,0.03508861275208801,0.07128412537917089,0.058139534883720936,0.5786486310158102,0.0006
474,abdee5f7-8557-3bf0-a0d0-2443d3b96ff7,-21.17045,24.6027133,0,0,0.4796849829962413,0.3267413961160681,0.1261967814218782,0.0333670374115268,0.0333670374115268,0.17075875867168305,0.0014
475,289821df-18d5-3497-8b73-8718edd0e3ec,-24.7686331,25.4032231,0,0,0.1423542748046059,0.07899077753617757,0.0014768792014666938,0.0031176272328951806,0.0025278058645096056,0.8700606745971338,0.00064
476,5e7a6108-ea6b-3ea1-af36-061357d8941f,-25.0340256,25.7480961,1,0,0.13412087584273014,0.036177551173427316,0.00509268690160929,0.007751937984496125,0.007751937984496125,0.9377596068112128,0.000114
477,44537046-1c87-3888-a61c-67455f50e17a,-22.651659,27.6373853,0,0,0.12356064673945469,0.10813901177176279,0.10307598288857203,0.05038759689922481,0.05038759689922481,0.528064719570276,0.00054
478,6e9e0e2a-c2fa-33d0-a2e4-374e0e99d37a,-21.099218,27.3317143,1,0,0.11222480758904599,0.037639649096498466,0.004990833163577103,0.007162116616110549,0.007162116616110549,0.15057738729530482,0.0011
479,08e48524-1a92-367a-9cff-89174c9e5ee2,-19.9754135,23.4047189,1,0,0.011992124574906032,0.004648721601559572,0.0035139539621104094,0.012133468149646108,0.005898213683855747,0.4226127046952135,0.0162
480,c8d98bd9-8778-336f-9b0a-bfdb9cc5b831,-22.163427,21.8518483,1,0,0.3297535946542569,0.5350528604633726,0.26807903850071296,0.20087630603303,0.20087630603303,0.4403148989844073,0.0092
481,a893b639-9ce8-3080-8af8-421aa2010c8b,-22.724051,27.3911313,0,0,0.19270926555694765,0.0696183549523881,0.05999185170095744,0.03176609369733738,0.03176609369733738,0.5347410999717287,0.0007
482,de038cda-c35a-33ee-85ee-2d83971772e4,-24.6021107,24.7237054,1,0,0.206371934848756,0.20446877108795086,0.0001018537380321858,0.0010111223458038423,0.0002527805864509606,0.6698997455581411,0.0008
483,54f819a5-ee2a-34f1-8b69-c08d9b93e6f2,-22.1186545,22.4171737,1,0,0.5485949525684625,0.47341980955237317,0.45966591973925447,0.6487192450286484,0.6487192450286484,0.4742839745123198,0.001
484,803f2cfb-062c-325a-8703-6f4836940019,-21.3065362,26.8778779,0,0,0.37288944573712784,0.12686511209417414,0.2624770829089428,0.19876980114593867,0.19876980114593867,0.19331057129808843,0.00019
485,4b2d3360-6746-3156-84af-4bb4cbf9464c,-25.5672426,25.4352537,0,0,0.044508084243183574,0.08935667691384871,0.015889183133020984,0.01718907987866532,0.01718907987866532,0.8916338646891243,0.001277
486,49b5c3b4-7fa3-3e9d-bb0a-53723b9e9eb2,-22.78297,26.8956113,0,0,0.20655092178270984,0.06270150708555149,0.08133020981870036,0.08779912369396697,0.08779912369396697,0.519996520453211,0.00047
487,30490f10-3f37-3a7a-a0cd-92546b9623d2,-24.7680901,24.5963023,1,0,0.3190740409283455,0.2229136987328485,0.10618252189855369,0.005055611729019211,0.005055611729019211,0.6522192984363787,0.0034
488,10c05c2f-7b64-37b8-9d97-78a50211bb48,-25.384433,25.3651313,0,0,0.09229759560885387,0.07051810752043189,0.0487370136484009,0.07920458375463432,0.07920458375463432,0.8602527020855534,1e-05
489,16cfb790-aad6-3af3-ac41-7b9907802b14,-24.4129931,25.5058603,0,0,0.008651035141101365,0.06193296843368075,0.0009166836422896722,0.005898213683855747,0.001600943714189417,0.7849422612704695,0.00213
490,e25bce27-e044-3e98-848d-6c54a3c3987d,-26.6663042,21.8798863,1,0,0.024938846130899108,0.7754367548924047,0.44499898146261974,0.09201213346814965,0.09201213346814965,0.6406498053628515,0.0001
491,eb2c89c0-46e5-34c7-a94a-717f4ed3e0cc,-24.6560376,25.7988126,1,0,0.0930732056559871,0.0066919097248256745,0.002546343450804645,0.0049713515335355575,0.00429726996966633,0.8483135071656916,0.000405
492,4a8e58f0-40d1-3133-8214-c40d0e13e925,-21.786547,27.2783023,0,0,0.09343117952389475,0.1171927719877034,0.07659401100020372,0.05990899898887766,0.05990899898887766,0.3076789248200422,0.00054
493,60a24de8-086a-3bf0-9d31-17123b2c3e2b,-25.4524131,23.7120641,1,0,0.02511783306485293,0.3745220064482268,0.004787125687512732,0.260701044826424,0.008004718570947084,0.5532914337907489,0.0003
494,6541043b-474c-3c7d-9078-af2db98bd669,-26.0198182,22.4019433,1,0,0.005071296462024939,0.6397803104146361,0.0021389284986759014,0.027974384900572972,0.0036231884057971015,0.5048604919209273,1.8e-05
495,e66b19f1-27f7-3a84-afda-3e7f1c02c022,-25.4114221,25.5349243,0,0,0.07541316150587674,0.05196071080452876,0.030556121409655735,0.03176609369733738,0.03176609369733738,0.897179392384142,0.0027
496,c62e2cd2-13cf-3e83-9629-50b19a2edac4,-24.478205,25.6631703,0,0,0.09551936042002265,0.029129489390417637,0.017467916072519865,0.015588136164475904,0.015588136164475904,0.8027314442293891,0.00061
497,a54cff2c-bd4f-32a7-b3ab-ac367666fd20,-22.507602,28.2362563,0,0,0.11556589702285067,0.1324698207992802,0.06854756569566103,0.005055611729019211,0.005055611729019211,0.5450057629993694,0.00269
498,105ef8f3-819f-307b-9dfc-b7e455608469,-24.6520628,25.5237675,1,0,0.15685221645486544,0.05366649171477844,0.011967814218781831,0.019885406134142237,0.019885406134142237,0.8426374964660854,0.0016
499,120ea4ad-a1bc-3bba-b6e6-326683ff72fa,-23.7466256,26.4598389,1,0,0.4558797207803831,0.18542400839769066,0.018944795273986556,0.00884732052578362,0.00884732052578362,0.6697475153861211,0.00816
500,a1b287a9-d737-3c07-a3c1-3d1f9e0008ea,-24.0613728,23.2991669,0,0,0.043016526460235065,0.48603509035015385,0.3459462212263191,0.14534883720930233,0.14534883720930233,0.3406041363112455,0.00362
501,fbe05e98-1f2c-32c8-bcac-dff5cc9b4c82,-18.351868,21.9578273,0,0,0.0733249806097488,0.44460898252980435,0.06014463230800571,0.10085945399393327,0.09959555106167847,0.8736489572233217,0.00179
502,77a0b9c6-19f4-3152-8090-0899d3bebcea,-19.4284779,23.8712703,0,0,0.4740767257323549,0.1389180475369274,0.24730087594214706,0.13515335355578026,0.13515335355578026,0.3643520431463802,0.00074
503,dfa479dd-5a97-3d81-abc0-6febbea1c67f,-19.3577278,22.2814107,0,0,0.1017839031084064,0.2592974432031192,0.06625585658993685,0.11122345803842267,0.10970677451971689,0.7057173303177261,0.0137
504,91fe9be7-78fb-31b4-988e-2bbca52cd08e,-24.6443416,25.8282833,0,0,0.07469721377006144,0.0010309664842168406,0.0014768792014666938,0.001937984496124031,0.001937984496124031,0.8462910205945675,0.000403
505,8c83d5bd-e908-3248-865b-f9b0705ca0c2,-24.085517,25.0271177,1,0,0.011156852216454865,0.17494563994901408,0.009981666327154207,0.016599258510279744,0.016599258510279744,0.7095883261205229,0.000378
506,40643174-4892-3057-b0da-0c33c08eed03,-21.437092,27.4444023,0,0,0.01795835570670008,0.05149208967533929,0.0021898553676919946,0.003370407819346141,0.003370407819346141,0.23556531761738037,0.0003
507,ddcdb0c4-07e8-3f88-84af-eb15f5b0cb1d,-24.6531541,25.8813725,0,0,0.04349382495077859,0.0,0.0001018537380321858,0.0009268621503201888,0.0002527805864509606,0.849901050388187,1.8e-05
